"","X","volume","page","mission.number","type","church","city","state","start.date","end.date","communion.general","converts","under.instruction","diocese","communion.adults","communion.children","communion.men","communion.women","order","notes","converts.adult","converts.children","location","geo.lon","geo.lat"
"1",420,3,33,NA,"mission","","Abington","MA","5/13/1883","5/20/1883",952,"",NA,"",NA,NA,NA,NA,"","",NA,NA,"Abington MA",-70.9453218,42.1048228
"2",485,3,149,NA,"retreat","St. Bridget's Church","Abington","MA","6/3/1885","6/8/1885",230,"",NA,"",NA,NA,NA,NA,"","",NA,NA,"Abington MA",-70.9453218,42.1048228
"3",12,1,28,12,"mission","St. Joseph's Church","Albany","NY","2/29/1852","3/14/1852",4000,"",NA,"Albany",NA,NA,NA,NA,"Redemptorist","",NA,NA,"Albany NY",-73.7562317,42.6525793
"4",20,1,39,20,"mission","Cathedral of the Immaculate Conception","Albany","NY","11/28/1852","12/12/1852",4500,"several",NA,"Albany",NA,NA,NA,NA,"Redemptorist","",NA,NA,"Albany NY",-73.7562317,42.6525793
"5",178,2,63,NA,"mission","Church of St. Mary","Albany","NY","2/2/1873","2/12/1873",2780,"2",NA,"Albany",NA,NA,NA,NA,"Paulist","",NA,NA,"Albany NY",-73.7562317,42.6525793
"6",307,2,344,NA,"mission","St. Mary's Church","Albany","NY","12/8/1878","12/22/1878",3368,"",NA,"",NA,NA,NA,NA,"Paulist","",NA,NA,"Albany NY",-73.7562317,42.6525793
"7",362,2,411,NA,"retreat","Cathedral","Albany","NY","3/29/1881","4/3/1881",700,"",NA,"",NA,NA,NA,NA,"Paulist","",NA,NA,"Albany NY",-73.7562317,42.6525793
"8",390,2,450,NA,"retreat","Cathedral","Albany","NY","5/7/1882","5/14/1882",700,"",NA,"",NA,NA,NA,NA,"Paulist","",NA,NA,"Albany NY",-73.7562317,42.6525793
"9",330,2,369,NA,"mission","","Algonac","MI","1/25/1880","1/27/1880",150,"",NA,"",NA,NA,NA,NA,"Paulist","",NA,NA,"Algonac MI",-82.531018,42.6183675
"10",95,1,196,9,"mission","St. Thomas's Church","Ann Arbor","MI","12/12/1858","12/19/1858",910,"5",NA,"",NA,NA,NA,NA,"Paulist","",NA,NA,"Ann Arbor MI",-83.7430378,42.2808256
"11",322,2,360,NA,"mission","","Ann Arbor","MI","11/16/1879","11/24/1879",740,"2",NA,"",NA,NA,NA,NA,"Paulist","",NA,NA,"Ann Arbor MI",-83.7430378,42.2808256
"12",371,2,423,NA,"mission","St. Mary's Church","Appleton","WI","10/30/1881","11/6/1881",620,"1",NA,"",NA,NA,NA,NA,"Paulist","",NA,NA,"Appleton WI",-88.4153847,44.2619309
"13",161,2,34,NA,"mission","Church of St. Thomas Aquinas","Archibald","PA","1/29/1865","2/5/1865",1200,"",NA,"Philadelphia",NA,NA,NA,NA,"Paulist","",NA,NA,"Archibald PA",-75.5368521,41.4948038
"14",190,2,81,NA,"mission","St. Malachy's Church","Arlington","MA","1/4/1874","1/12/1874",1170,"4",NA,"Boston",NA,NA,NA,NA,"Paulist","",NA,NA,"Arlington MA",-71.1564729,42.4153925
"15",66,1,113,66,"mission","Church of the Immaculate Conception","Atlanta","GA","12/14/1856","12/19/1856",190,"several",NA,"Savannah",NA,NA,NA,NA,"Redemptorist","",NA,NA,"Atlanta GA",-84.3879824,33.7489954
"16",260,2,170,NA,"mission","Church of the Holy Family","Auburn","NY","1/21/1877","2/4/1877",3500,"3",NA,"Rochester",NA,NA,NA,NA,"Paulist","",NA,NA,"Auburn NY",-76.5660529,42.9317335
"17",496,3,174,NA,"mission","Church of the Holy Family","Auburn","NY","11/8/1885","11/22/1885",3900,"2",NA,"",NA,NA,1970,1930,"","",NA,NA,"Auburn NY",-76.5660529,42.9317335
"18",431,3,52,NA,"mission","St. Patrick's Church","Audenried","PA","9/30/1883","10/7/1883",1600,"1",NA,"",NA,NA,NA,NA,"","",NA,NA,"Audenried PA",-75.991593,40.9106414
"19",69,1,119,69,"mission","Trinity Church","Augusta","GA","12/14/1856","12/24/1856",750,"",NA,"Savannah",NA,NA,NA,NA,"Redemptorist","",NA,NA,"Augusta GA",-82.0105148,33.4734978
"20",535,3,233,NA,"mission","","Aurora","NY","11/21/1886","11/28/1886",324,"",NA,"Rochester",NA,NA,NA,NA,"","",NA,NA,"Aurora NY",-76.7024485,42.7539591
"21",236,2,142,NA,"mission","St. Augustine's Church","Austin","MN","9/17/1876","9/27/1876",790,"17",NA,"",NA,NA,NA,NA,"Paulist","",NA,NA,"Austin MN",-92.9746367,43.6666296
"22",532,3,231,NA,"mission","St. Augustine's Church","Austin","MN","11/21/1886","11/28/1886",700,"",NA,"",NA,NA,NA,NA,"","",NA,NA,"Austin MN",-92.9746367,43.6666296
"23",24,1,45,24,"mission","Cathedral of Baltimore","Baltimore","MD","4/10/1853","4/24/1853",4500,"",NA,"Baltimore",NA,NA,NA,NA,"Redemptorist","",NA,NA,"Baltimore MD",-76.6121893,39.2903848
"24",43,1,70,43,"mission","St. Peter's Church","Baltimore","MD","12/3/1854","12/13/1854",2500,"several",NA,"Baltimore",NA,NA,NA,NA,"Redemptorist","",NA,NA,"Baltimore MD",-76.6121893,39.2903848
"25",230,2,135,NA,"mission","St. John's Church","Baltimore","MD","1/9/1876","1/23/1876",4200,"29",NA,"",NA,NA,NA,NA,"Paulist","",NA,NA,"Baltimore MD",-76.6121893,39.2903848
"26",357,2,404,NA,"mission","St. Francis Xavier's Church ","Baltimore","MD","4/17/1881","5/1/1881",1350,"25",NA,"",NA,NA,NA,NA,"Paulist","",NA,NA,"Baltimore MD",-76.6121893,39.2903848
"27",416,3,26,NA,"mission","St. Ann's Church","Baltimore","MD","4/15/1883","4/22/1883",970,"1",NA,"",NA,NA,NA,NA,"","",NA,NA,"Baltimore MD",-76.6121893,39.2903848
"28",462,3,96,NA,"mission","St. Martin's Church","Baltimore","MD","4/20/1884","5/4/1884",2000,"2",NA,"",NA,NA,NA,NA,"","",NA,NA,"Baltimore MD",-76.6121893,39.2903848
"29",495,3,169,NA,"mission","Cathedral","Baltimore","MD","10/18/1885","11/1/1885",2505,"",NA,"",NA,NA,888,1617,"","",NA,NA,"Baltimore MD",-76.6121893,39.2903848
"30",526,3,223,NA,"mission","St. Ann's Church","Baltimore","MD","10/24/1886","10/31/1886",920,"2",NA,"",NA,NA,NA,NA,"","",NA,NA,"Baltimore MD",-76.6121893,39.2903848
"31",268,2,186,NA,"mission","St. James Church","Bay City","MI","9/16/1877","9/26/1877",1700,"7",NA,"",NA,NA,NA,NA,"Paulist","",NA,NA,"Bay City MI",-83.8888647,43.5944677
"32",432,3,52,NA,"mission","St. Patrick's Church","Beaver Meadows","PA","9/30/1883","10/7/1883",535,"",NA,"",NA,NA,NA,NA,"","",NA,NA,"Beaver Meadows PA",-75.9146444,40.9281419
"33",409,3,10,NA,"mission","St. John's Church","Bellaire","OH","11/12/1882","11/27/1882",830,"2",NA,"Columbus",NA,NA,NA,NA,"","",NA,NA,"Bellaire OH",-80.7423054,40.0161843
"34",246,2,152,NA,"mission","Church of the Sacred Heart","Belle Plaine","MN","10/29/1876","11/7/1876",1030,"4",NA,"",NA,NA,NA,NA,"Paulist","",NA,NA,"Belle Plaine MN",-93.7684042,44.6230409
"35",98,1,206,12,"mission","St. Peter's Church","Belleville","NJ","2/13/1859","2/20/1859",1135,"2",NA,"Newark",NA,NA,NA,NA,"Paulist","",NA,NA,"Belleville NJ",-74.1500469,40.7936744
"36",286,2,214,NA,"mission","St. Mary's Church","Bellows Falls","VT","3/24/1878","4/1/1878",612,"1",NA,"",NA,NA,NA,NA,"Paulist","",NA,NA,"Bellows Falls VT",-72.4439772,43.133411
"37",350,2,395,NA,"mission","","Bergon Point","NJ","1/16/1881","1/27/1881",1975,"",NA,"",NA,NA,NA,NA,"Paulist","",NA,NA,"Bergon Point NJ",-74.1412543,40.6476033
"38",530,3,228,NA,"mission","St. Paul's Church","Birmingham","AL","11/7/1886","11/17/1886",500,"5",NA,"",NA,NA,NA,NA,"","",NA,NA,"Birmingham AL",-86.80249,33.5206608
"39",162,2,35,NA,"mission","Church of Immaculate Conception","Birmingham","CT","2/12/1865","2/20/1865",1600,"1",NA,"Hartford",NA,NA,NA,NA,"Paulist","",NA,NA,"Birmingham CT",-83.2113192,42.5467012
"40",175,2,59,NA,"mission","Church of St. John the Evangelist","Birmingham","PA","12/8/1872","12/18/1872",2150,"",NA,"",NA,NA,NA,NA,"Paulist","",NA,NA,"Birmingham PA",-78.1952892,40.6478421
"41",118,1,271,32,"mission","St. John Baptist Church","Boston","MA","12/30/1860","1/10/1861",4550,"",NA,"Boston",NA,NA,NA,NA,"Paulist","",NA,NA,"Boston MA",-71.0597732,42.3584308
"42",140,2,7,NA,"mission","Cathedral of the Holy Cross","Boston","MA","3/8/1863","3/17/1863",3000,"",NA,"Boston",NA,NA,NA,NA,"Paulist","",NA,NA,"Boston MA",-71.0597732,42.3584308
"43",233,2,138,NA,"mission","Church of St. Patrick","Boston","MA","3/19/1876","4/9/1876",4000,"3",NA,"",NA,NA,NA,NA,"Paulist","",NA,NA,"Boston MA",-71.0597732,42.3584308
"44",379,2,434,NA,"mission","St. Augustine's Church","Boston","MA","12/1/1881","12/1/1881",900,"",NA,"",NA,NA,NA,NA,"Paulist","",NA,NA,"Boston MA",-71.0597732,42.3584308
"45",384,2,442,NA,"mission","St. Francis de Sales","Boston ","MA","2/26/1882","3/10/1882",6370,"1",6,"",NA,NA,NA,NA,"Paulist","",NA,NA,"Boston  MA",-71.0597732,42.3584308
"46",398,2,455,NA,"mission","","Boulder","CO","12/18/1881","12/22/1881",50,"1",NA,"",NA,NA,NA,NA,"Paulist","",NA,NA,"Boulder CO",-105.2705456,40.0149856
"47",82,1,153,82,"mission","","Brandon","VT","2/7/1858","2/11/1858",277,"",NA,"Burlington",NA,NA,NA,NA,"Redemptorist","",NA,NA,"Brandon VT",-73.087648,43.7981572
"48",78,1,144,78,"mission","St. Joseph's Church","Brandywine","DE","12/6/1857","12/14/1857",920,"1",NA,"Philadelphia",NA,NA,NA,NA,"Redemptorist","",NA,NA,"Brandywine DE",-75.5343681,39.8295563
"49",193,2,84,NA,"mission","Church of St. Michael","Brattleboro","VT","2/8/1874","2/15/1874",570,"2",NA,"",NA,NA,NA,NA,"Paulist","",NA,NA,"Brattleboro VT",-72.5578619,42.8509348
"50",376,2,431,NA,"mission","Church of the Annunciation","Brazil","IN","12/4/1881","12/11/1881",335,"",NA,"",NA,NA,NA,NA,"Paulist","",NA,NA,"Brazil IN",-87.1250154,39.523652
"51",104,1,234,18,"mission","St. James' Church","Bridgeport","CT","10/30/1859","11/7/1859",1570,"",NA,"Hartford",NA,NA,NA,NA,"Paulist","",NA,NA,"Bridgeport CT",-73.1951767,41.1865478
"52",313,2,352,NA,"mission","St. Thomas Aquinas's Church","Bridgewater","CT","4/20/1879","4/29/1879",1158,"",NA,"",NA,NA,NA,NA,"Paulist","",NA,NA,"Bridgewater CT",-73.3662305,41.5350949
"53",158,2,31,NA,"mission","","Brighton","MA","11/17/1864","11/17/1864",700,"3",NA,"",NA,NA,NA,NA,"Paulist","",NA,NA,"Brighton MA",-71.1626756,42.3463503
"54",290,2,219,NA,"mission","","Brockton","MA","4/28/1878","5/6/1878",2322,"7",NA,"Boston",NA,NA,NA,NA,"Paulist","",NA,NA,"Brockton MA",-71.0183787,42.0834335
"55",363,2,412,NA,"retreat","St. Patrick's Church","Brockton","MA","9/18/1881","9/25/1881",900,"",NA,"",NA,NA,NA,NA,"Paulist","",NA,NA,"Brockton MA",-71.0183787,42.0834335
"56",410,3,12,NA,"mission","St. Patrick's Church","Brockton","MA","11/26/1882","12/10/1882",2918,"1",NA,"",NA,NA,NA,NA,"","",NA,NA,"Brockton MA",-71.0183787,42.0834335
"57",157,2,31,NA,"mission","Church of the Assumption","Brookline","MA","11/6/1864","11/14/1864",1200,"1",NA,"",NA,NA,NA,NA,"Paulist","",NA,NA,"Brookline MA",-71.1211635,42.3317642
"58",56,1,87,56,"mission","Church of OUr Lady Start of the Sea","Brooklyn","NY","2/3/1856","2/17/1856",2800,"1",NA,"New York",NA,NA,NA,NA,"Redemptorist","",NA,NA,"Brooklyn NY",-73.95,40.65
"59",408,3,8,NA,"mission","St. Teresa's Church","Brooklyn","NY","10/22/1882","11/5/1882",2740,"2",NA,"Brooklyn",NA,NA,NA,NA,"","",NA,NA,"Brooklyn NY",-73.95,40.65
"60",434,3,58,NA,"retreat","St. Patrick's Church","Brooklyn","NY","10/7/1883","10/14/1883",1500,"",NA,"",NA,NA,NA,NA,"","",NA,NA,"Brooklyn NY",-73.95,40.65
"61",435,3,59,NA,"retreat","Church of the Sacred Heart","Brooklyn","NY","10/21/1883","10/28/1883",1000,"",NA,"",NA,NA,NA,NA,"","",NA,NA,"Brooklyn NY",-73.95,40.65
"62",447,3,81,NA,"mission","St. Joseph's Church","Brooklyn","NY","3/23/1884","4/6/1884",4707,"5",NA,"",NA,300,1840,2567,"","",NA,NA,"Brooklyn NY",-73.95,40.65
"63",484,3,146,NA,"mission","St. Patrick's Church","Brooklyn","NY","5/17/1885","5/31/1885",5560,"",NA,"",NA,NA,2480,3080,"","",NA,NA,"Brooklyn NY",-73.95,40.65
"64",240,2,146,NA,"mission","Church of St. Patrick","Brownsville","MN","11/4/1876","11/9/1876",520,"8",NA,"",NA,NA,NA,NA,"Paulist","",NA,NA,"Brownsville MN",-91.2798153,43.6940552
"65",52,1,83,52,"mission","St. Joseph's Cathedral","Buffalo","NY","11/11/1855","11/21/1855",3000,"several",NA,"Buffalo",NA,NA,NA,NA,"Redemptorist","",NA,NA,"Buffalo NY",-78.8783689,42.8864468
"66",189,2,80,NA,"mission","St. Joseph's Cathedral","Buffalo","NY","11/30/1873","12/14/1873",4500,"7",NA,"Buffalo",NA,NA,NA,NA,"Paulist","",NA,NA,"Buffalo NY",-78.8783689,42.8864468
"67",80,1,148,80,"mission","Cathedral of Burlington","Burlington","VT","1/10/1858","1/18/1858",1400,"2",NA,"Burlington",NA,NA,NA,NA,"Redemptorist","",NA,NA,"Burlington VT",-73.212072,44.4758825
"68",239,2,145,NA,"mission","St. Patrick's Church","Caledonia","MN","10/27/1876","10/30/1876",960,"6",NA,"",NA,NA,NA,NA,"Paulist","",NA,NA,"Caledonia MN",-91.4968076,43.6346913
"69",133,1,296,47,"mission","St. Peter's Church","Cambridge","MA","4/27/1862","5/7/1862",2500,"2",NA,"Boston",NA,NA,NA,NA,"Paulist","",NA,NA,"Cambridge MA",-71.1097335,42.3736158
"70",294,2,231,NA,"mission","Church of St. Patrick","Camp Grove","IL","10/20/1878","10/27/1878",580,"1",NA,"Peoria",NA,NA,NA,NA,"Paulist","",NA,NA,"Camp Grove IL",-89.6331524,41.0789258
"71",50,1,79,50,"mission","","Canandagua","NY","9/9/1855","9/17/1855",700,"",NA,"Buffalo",NA,NA,NA,NA,"Redemptorist","",NA,NA,"Canandagua NY",-77.2816984,42.887535
"72",513,3,201,27,"mission","St. Mary's Church","Canandaigua","NY","5/9/1886","5/17/1886",1760,"4",NA,"",NA,NA,NA,NA,"","",NA,NA,"Canandaigua NY",-77.2816984,42.887535
"73",334,2,374,NA,"mission","St. Rose of Lima's Church, Cannon St","Cannon St.","NY","4/4/1880","4/19/1880",4530,"18",NA,"New York",NA,NA,NA,NA,"Paulist","",NA,NA,"Cannon St. NY",-73.9802919,40.7151188
"74",188,2,79,NA,"mission","Church of St. John the Baptist","Canton","OH","11/16/1873","11/25/1873",700,"22",NA,"",NA,NA,NA,NA,"Paulist","",NA,NA,"Canton OH",-81.378447,40.7989473
"75",138,2,5,NA,"mission","Church of St. Rose of Lima","Carbondale","PA","1/25/1863","2/3/1863",2100,"7",NA,"",NA,NA,NA,NA,"Paulist","",NA,NA,"Carbondale PA",-75.5018508,41.5736935
"76",377,2,432,NA,"mission","","Carbon","IN","12/11/1881","12/16/1881",84,"",NA,"",NA,NA,NA,NA,"Paulist","",NA,NA,"Carbon IN",-87.1068681,39.5996395
"77",339,2,383,NA,"mission","","Carlisle","PA","10/17/1880","10/25/1880",195,"2",NA,"",NA,NA,NA,NA,"Paulist","",NA,NA,"Carlisle PA",-77.195,40.2025
"78",195,2,88,NA,"mission","Church of the Sacred Heart","Central Falls","NY","3/8/1874","3/16/1874",1450,"12",NA,"",NA,NA,NA,NA,"Paulist","",NA,NA,"Central Falls NY",-73.8320824,44.0778319
"79",336,2,379,NA,"mission","","Chambersburg","PA","9/12/1880","9/18/1880",270,"5",NA,"",NA,NA,NA,NA,"Paulist","",NA,NA,"Chambersburg PA",-77.6611022,39.9375911
"80",337,2,381,NA,"mission","Corpus Christi Church","Chambersburg","PA","9/19/1880","9/27/1800",390,"2",NA,"",NA,NA,NA,NA,"Paulist","",NA,NA,"Chambersburg PA",-77.6611022,39.9375911
"81",275,2,198,NA,"mission","Church of St. Charles Borromeo","Charleston","IL","10/28/1877","11/4/1877",160,"0",NA,"Alton",NA,NA,NA,NA,"Paulist","",NA,NA,"Charleston IL",-88.1761521,39.4961458
"82",375,2,430,NA,"mission","Church of St. Charles Borromeo","Charleston","IL","12/2/1881","12/9/1881",204,"",NA,"",NA,NA,NA,NA,"Paulist","",NA,NA,"Charleston IL",-88.1761521,39.4961458
"83",71,1,129,71,"mission","Cathedral of St. John and St. Finabarr","Charleston","SC","1/25/1857","2/8/1857",3100,"20",NA,"Charleston",NA,200,NA,NA,"Redemptorist","",NA,NA,"Charleston SC",-79.9309216,32.7765656
"84",45,1,72,45,"mission","St. Mary's Church","Charlestown","MA","1/28/1855","2/11/1855",2800,"several",NA,"Boston",NA,NA,NA,NA,"Redemptorist","",NA,NA,"Charlestown MA",-71.0602131,42.3782065
"85",264,2,177,NA,"mission","St. Francis de Sales Church","Charlestown","NY","4/8/1877","4/24/1877",6900,"25",NA,"",NA,NA,NA,NA,"Paulist","",NA,NA,"Charlestown NY",-71.6418744,41.3832162
"86",232,2,137,NA,"mission","Church of St. Rose of Lima","Chelsea","MA","2/27/1876","3/12/1876",3200,"14",NA,"Boston",NA,NA,NA,NA,"Paulist","",NA,NA,"Chelsea MA",-71.0328284,42.3917638
"87",387,2,447,NA,"mission","St. Rose's Church","Chelsea","MA","4/16/1882","4/30/1882",3250,"16",NA,"",NA,NA,NA,NA,"Paulist","",NA,NA,"Chelsea MA",-71.0328284,42.3917638
"88",418,3,30,NA,"retreat","St. Rose of Lima","Chelsea","MA","4/22/1883","4/29/1883",1050,"",NA,"",NA,NA,NA,NA,"","",NA,NA,"Chelsea MA",-71.0328284,42.3917638
"89",144,2,11,NA,"mission","Cathedral of the Holy Name","Chicago","IL","10/4/1863","10/14/1863",2600,"8",NA,"Chicago",NA,NA,NA,NA,"Paulist","",NA,NA,"Chicago IL",-87.6297982,41.8781136
"90",202,2,98,NA,"mission","St. Jarlath's Church","Chicago","IL","9/27/1874","10/7/1874",800,"1",NA,"Chicago",NA,NA,NA,NA,"Paulist","",NA,NA,"Chicago IL",-87.6297982,41.8781136
"91",203,2,99,NA,"mission","Church of St. Pius","Chicago","IL","10/11/1874","10/25/1874",1500,"12",NA,"Chicago",NA,NA,NA,NA,"Paulist","",NA,NA,"Chicago IL",-87.6297982,41.8781136
"92",269,2,187,NA,"mission","St. Pius Church","Chicago","IL","9/30/1877","10/11/1877",1280,"0",NA,"",NA,NA,NA,NA,"Paulist","",NA,NA,"Chicago IL",-87.6297982,41.8781136
"93",270,2,189,NA,"mission","St. James Church","Chicago","IL","10/21/1877","11/7/1877",3086,"8",NA,"",NA,NA,NA,NA,"Paulist","",NA,NA,"Chicago IL",-87.6297982,41.8781136
"94",305,2,342,NA,"mission","St. Pius Church","Chicago","IL","11/10/1878","11/17/1878",1100,"",NA,"",NA,NA,NA,NA,"Paulist","",NA,NA,"Chicago IL",-87.6297982,41.8781136
"95",310,2,348,NA,"mission","All Saint's Church","Chicago","IL","2/9/1879","2/23/1879",2163,"5",NA,"Chicago",NA,NA,NA,NA,"Paulist","",NA,NA,"Chicago IL",-87.6297982,41.8781136
"96",369,2,419,NA,"mission","St. Pius's Church","Chicago","IL","10/23/1881","11/7/1881",1550,"",1,"Chicago",NA,446,569,535,"Paulist","",NA,NA,"Chicago IL",-87.6297982,41.8781136
"97",372,2,424,NA,"mission","St. Patrick's Church","Chicago","IL","11/13/1881","11/21/1881",4600,"2",10,"",NA,NA,NA,NA,"Paulist","",NA,NA,"Chicago IL",-87.6297982,41.8781136
"98",436,3,60,NA,"mission","Church of the Holy Angels","Chicago","IL","10/14/1883","10/21/1883",625,"",NA,"",NA,NA,NA,NA,"","",NA,NA,"Chicago IL",-87.6297982,41.8781136
"99",445,3,76,NA,"mission","St. James's Church","Chicago","IL","2/10/1884","2/24/1884",3279,"",NA,"Chicago",NA,450,1119,1710,"","",NA,NA,"Chicago IL",-87.6297982,41.8781136
"100",481,3,139,NA,"mission","St. Elizabeth's Church","Chicago","IL","4/12/1885","4/21/1885",1676,"1",NA,"",NA,NA,NA,NA,"","",NA,NA,"Chicago IL",-87.6297982,41.8781136
"101",483,3,144,NA,"mission","All Saints' Church","Chicago","IL","4/26/1885","5/10/1885",2544,"",NA,"",NA,NA,NA,NA,"","",NA,NA,"Chicago IL",-87.6297982,41.8781136
"102",319,2,358,NA,"mission","","Chicopee Falls","MA","9/25/1879","10/6/1879",1200,"",NA,"Springfield",NA,NA,NA,NA,"Paulist","",NA,NA,"Chicopee Falls MA",-72.5784089,42.1544318
"103",141,2,8,NA,"mission","Church of the Most Holy Name of Jesus","Chicopee","MA","4/12/1863","4/20/1863",2600,"3",NA,"Boston",NA,NA,NA,NA,"Paulist","",NA,NA,"Chicopee MA",-72.6078672,42.1487043
"104",18,1,37,18,"mission","St. Peter's Cathedral","Cincinnati","OH","9/26/1852","10/10/1852",5000,"",NA,"Cincinnati",NA,NA,NA,NA,"Redemptorist","",NA,NA,"Cincinnati OH",-84.5120196,39.1031182
"105",179,2,64,NA,"mission","St. Peter's Cathedral","Cincinnati","OH","2/23/1873","3/9/1873",3000,"2",NA,"Cincinnati",NA,NA,NA,NA,"Paulist","",NA,NA,"Cincinnati OH",-84.5120196,39.1031182
"106",196,2,90,NA,"mission","St. Joseph's Church","Circleville","OH","2/8/1874","2/17/1874",400,"8",NA,"",NA,NA,NA,NA,"Paulist","",NA,NA,"Circleville OH",-82.9460133,39.600618
"107",358,2,406,NA,"mission","St. Joseph's Church","Circleville","OH","2/6/1881","2/13/1881",430,"1",NA,"",NA,NA,NA,NA,"Paulist","",NA,NA,"Circleville OH",-82.9460133,39.600618
"108",22,1,41,22,"mission","St. John's Cathedral","Cleveland","OH","1/23/1853","2/6/1853",2300,"several",NA,"Cleveland",NA,NA,NA,NA,"Redemptorist","",NA,NA,"Cleveland OH",-81.6954088,41.4994954
"109",54,1,85,54,"mission","St. John's Cathedral","Cleveland","OH","12/16/1855","12/25/1855",3300,"",NA,"Cleveland",NA,NA,NA,NA,"Redemptorist","",NA,NA,"Cleveland OH",-81.6954088,41.4994954
"110",284,2,210,NA,"mission","St Bridget's Church","Cleveland","OH","3/31/1878","4/10/1878",1323,"1",NA,"",NA,NA,NA,NA,"Paulist","",NA,NA,"Cleveland OH",-81.6954088,41.4994954
"111",106,1,239,20,"mission","St. Mary's Church","Clifton, Staten Island","NY","1/1/1860","1/8/1860",1250,"3",NA,"New York",1159,91,NA,NA,"Paulist","",NA,NA,"Clifton, Staten Island NY",-74.0784785,40.6189726
"112",164,2,37,NA,"mission","Church of St. Mary","Clifton, Staten Island","NY","3/26/1865","4/4/1865",1600,"13",NA,"New York",NA,NA,NA,NA,"Paulist","",NA,NA,"Clifton, Staten Island NY",-74.0784785,40.6189726
"113",16,1,35,16,"mission","St. Bernard's Church","Cohoes","NY","6/10/1852","6/20/1852",1400,"",NA,"Albany",NA,NA,NA,NA,"Redemptorist","",NA,NA,"Cohoes NY",-73.7001187,42.7742446
"114",75,1,138,75,"mission","Church of Our Lady of Loretto","Cold Spring","NY","10/11/1857","10/18/1857",800,"2",NA,"",NA,NA,NA,NA,"Redemptorist","",NA,NA,"Cold Spring NY",-73.954583,41.4200937
"115",167,2,41,NA,"mission","Church of St. Mary","Cold Spring","NY","10/29/1865","11/5/1865",721,"",NA,"New York",NA,NA,NA,NA,"Paulist","",NA,NA,"Cold Spring NY",-73.954583,41.4200937
"116",68,1,116,68,"mission","St. Philip and James' Church","Columbus","GA","1/4/1857","1/11/1857",170,"1",NA,"Savannah",NA,NA,NA,NA,"Redemptorist","",NA,NA,"Columbus GA",-84.9877094,32.4609764
"117",181,2,68,NA,"mission","Cathedral of St. Joseph","Columbus","OH","4/20/1873","4/29/1873",2100,"",NA,"Columbus",NA,NA,NA,NA,"Paulist","",NA,NA,"Columbus OH",-82.9987942,39.9611755
"118",91,1,186,5,"mission","St. Mary's Cathedral","Covington","KY","10/24/1858","11/1/1858",1450,"",NA,"Covington",NA,NA,NA,NA,"Paulist","",NA,NA,"Covington KY",-84.5085536,39.0836712
"119",488,3,156,NA,"mission","","Currie","MN","9/27/1885","10/4/1885",232,"",NA,"",NA,NA,NA,NA,"","",NA,NA,"Currie MN",-95.6663993,44.071351
"120",8,1,22,8,"mission","St. Philip Benizi Church","Cussewago","PA","12/1/1851","12/8/1851",270,"",NA,"Pittsburgh",NA,NA,NA,NA,"Redemptorist","",NA,NA,"Cussewago PA",-80.2098219,41.7985407
"121",273,2,196,NA,"mission","Church of OUr Lady of Perpetual Help","Defiance","OH","9/30/1877","10/10/1877",450,"1",NA,"",NA,NA,NA,NA,"Paulist","",NA,NA,"Defiance OH",-84.3557802,41.2844933
"122",433,3,56,NA,"mission","Church of Our Lady of Perpetual Help","Defiance","OH","10/14/1883","10/31/1883",625,"",NA,"",NA,NA,NA,NA,"","",NA,NA,"Defiance OH",-84.3557802,41.2844933
"123",355,2,402,NA,"mission","","Delavan","WI","3/20/1881","3/29/1881",536,"",NA,"",NA,NA,NA,NA,"Paulist","",NA,NA,"Delavan WI",-88.6437138,42.6330703
"124",397,2,454,NA,"mission","Cathedral","Denver","CO","12/4/1881","12/14/1881",2900,"4",NA,"",NA,NA,NA,NA,"Paulist","",NA,NA,"Denver CO",-104.9847179,39.737567
"125",324,2,364,NA,"mission","","Deposit","NY","11/9/1879","11/16/1879",480,"",NA,"",NA,NA,NA,NA,"Paulist","",NA,NA,"Deposit NY",-75.4276769,42.0600834
"126",13,1,31,13,"mission","Ss. Peter and Paul's Cathedral","Detroit","MI","3/21/1852","4/4/1852",3000,"",NA,"Detroit",NA,NA,NA,NA,"Redemptorist","",NA,NA,"Detroit MI",-83.0457538,42.331427
"127",271,2,191,NA,"mission","St. Aloysius Church","Detroit","MI","11/18/1877","12/4/1877",2000,"",NA,"",NA,NA,NA,NA,"Paulist","",NA,NA,"Detroit MI",-83.0457538,42.331427
"128",127,1,291,41,"mission","","Dunmore","PA","1/19/1862","1/26/1862",700,"",NA,"",NA,NA,NA,NA,"Paulist","",NA,NA,"Dunmore PA",-75.6324112,41.4198027
"129",404,2,459,NA,"mission","","Durango","CO","4/30/1882","5/7/1882",60,"",NA,"",NA,NA,NA,NA,"Paulist","",NA,NA,"Durango CO",-107.8800667,37.27528
"130",120,1,276,34,"mission","Church of the Holy Redeemer","East Boston","MA","2/13/1861","2/27/1861",2900,"",NA,"Boston",NA,NA,NA,NA,"Paulist","",NA,NA,"East Boston MA",-71.0388601,42.3702137
"131",192,2,83,NA,"mission","Church of the Assumption","East Boston","MA","1/16/1874","2/1/1874",2350,"18",NA,"Boston",NA,NA,NA,NA,"Paulist","",NA,NA,"East Boston MA",-71.0388601,42.3702137
"132",414,3,20,NA,"mission","Church of the Sacred Heart","East Cambridge","MA","2/4/1883","2/4/1883",5490,"2",NA,"",NA,NA,NA,NA,"","",NA,NA,"East Cambridge MA",-71.0824613,42.3683353
"133",83,1,155,83,"mission","","East Rutland","VT","2/7/1858","2/15/1858",840,"",NA,"Burlington",NA,NA,NA,NA,"Redemptorist","",NA,NA,"East Rutland VT",-72.9726065,43.6106237
"134",124,1,284,38,"mission","St. Mary's Church","Elizabeth","NJ","10/6/1861","10/14/1861",950,"1",NA,"",NA,NA,NA,NA,"Paulist","",NA,NA,"Elizabeth NJ",-74.2107006,40.6639916
"135",115,1,261,29,"mission","St. Patrick's Church","Elizabethport","NJ","10/20/1860","10/28/1860",1000,"1",NA,"Newark",NA,NA,NA,NA,"Paulist","",NA,NA,"Elizabethport NJ",-74.1870888,40.6501031
"136",505,3,190,21,"retreat","St. Charles College","Ellicot City","MD","2/23/1886","2/28/1886",50,"",NA,"",NA,NA,NA,NA,"","",NA,NA,"Ellicot City MD",-76.7983067,39.2673283
"137",42,1,68,42,"mission","Church of Our Lady of the Mountain","Emmitsburg","MD","11/19/1854","11/26/1854",500,"",NA,"Baltimore",NA,NA,NA,NA,"Redemptorist","",NA,NA,"Emmitsburg MD",-77.3269307,39.7045417
"138",7,1,20,7,"mission","St. Patrick's Church","Erie","PA","11/17/1851","11/28/1851",1000,"",NA,"Pittsburgh",NA,NA,NA,NA,"Redemptorist","",NA,NA,"Erie PA",-80.085059,42.1292241
"139",332,2,371,NA,"mission","","Evansville","IN","2/22/1880","3/2/1880",794,"6",NA,"",NA,NA,NA,NA,"Paulist","",NA,NA,"Evansville IN",-87.5710898,37.9715592
"140",360,2,408,NA,"mission","Church of the Assumption","Evansville","IN","2/20/1881","2/27/1881",750,"",NA,"",NA,NA,NA,NA,"Paulist","",NA,NA,"Evansville IN",-87.5710898,37.9715592
"141",378,2,433,NA,"mission","","Evansville","IN","12/1/1881","12/1/1881",350,"",NA,"",NA,NA,NA,NA,"Paulist","",NA,NA,"Evansville IN",-87.5710898,37.9715592
"142",267,2,183,NA,"mission","","Everett","MA","5/13/1877","5/20/1877",468,"5",NA,"",NA,NA,NA,NA,"Paulist","",NA,NA,"Everett MA",-71.0536625,42.40843
"143",388,2,448,NA,"mission","St. Mary's Church","Everett","MA","5/7/1882","5/14/1882",497,"",3,"",NA,NA,NA,NA,"Paulist","",NA,NA,"Everett MA",-71.0536625,42.40843
"144",185,2,73,NA,"mission","St. Mary's Church","Fall River","MA","10/5/1873","10/19/1873",5300,"8",NA,"Providence",NA,NA,NA,NA,"Paulist","",NA,NA,"Fall River MA",-71.1550451,41.7014912
"145",228,2,133,NA,"mission","Church of the Immaculate Conception","Faribault","MN","11/28/1875","12/8/1875",1300,"6",NA,"",NA,NA,NA,NA,"Paulist","",NA,NA,"Faribault MN",-93.268827,44.2949636
"146",274,2,197,NA,"mission","St Stephen's Church","Flora","IL","10/14/1877","10/21/1887",150,"4",NA,"Alton",NA,NA,NA,NA,"Paulist","",NA,NA,"Flora IL",-88.4856042,38.6689364
"147",26,1,51,26,"mission","St. Michael's Church","Flushing","NY","9/11/1853","9/18/1853",950,"",NA,"New York",NA,NA,NA,NA,"Redemptorist","",NA,NA,"Flushing NY",-73.8330844,40.7658085
"148",197,2,92,NA,"mission","St. Joseph's Church","Fond du Lac","WI","2/22/1874","3/4/1874",1650,"2",NA,"Milwaukee",NA,NA,NA,NA,"Paulist","",NA,NA,"Fond du Lac WI",-88.4470508,43.7730448
"149",244,2,150,NA,"mission","St. Gerhard's Church","Forest City","MN","10/1/1876","10/10/1876",700,"3",NA,"",NA,NA,NA,NA,"Paulist","",NA,NA,"Forest City MN",-94.4663799,45.2063519
"150",423,3,36,NA,"mission","","Fort Fairfield","ME","6/5/1883","6/10/1883",230,"",NA,"",NA,NA,NA,NA,"","",NA,NA,"Fort Fairfield ME",-67.8339004,46.7722294
"151",426,3,43,NA,"mission","St. Elizabeth's Church","Fort Washington","NY","9/16/1883","9/23/1883",670,"",NA,"",NA,NA,NA,NA,"","",NA,NA,"Fort Washington NY",-73.9459708,40.8501001
"152",237,2,143,NA,"mission","St. Lawrence's Church","Fountain","MN","10/1/1876","10/6/1876",440,"3",NA,"",NA,NA,NA,NA,"Paulist","",NA,NA,"Fountain MN",-92.1362717,43.7399639
"153",49,1,76,49,"mission","","Frankfort","KY","4/29/1855","5/3/1855",350,"2",NA,"Covington",NA,NA,NA,NA,"Redemptorist","",NA,NA,"Frankfort KY",-84.8732835,38.2009055
"154",406,3,5,NA,"mission","","Franklin","PA","9/17/1882","9/24/1882",432,"6",NA,"Erie",NA,NA,NA,NA,"","",2,4,"Franklin PA",-79.8314437,41.3978358
"155",346,2,391,NA,"mission","","Fredricksburg","VA","10/31/1880","11/4/1880",75,"2",NA,"",NA,NA,NA,NA,"Paulist","",NA,NA,"Fredricksburg VA",-77.4605399,38.3031837
"156",492,3,163,NA,"mission","","Fulda","MN","10/11/1885","10/18/1885",300,"",NA,"",NA,NA,NA,NA,"","",NA,NA,"Fulda MN",-95.6002856,43.8705185
"157",279,2,202,NA,"mission","Church of St. Patrick","Galesburg","IL","12/9/1877","12/19/1877",1000,"2",NA,"Peoria",NA,NA,NA,NA,"Paulist","",NA,NA,"Galesburg IL",-90.3712395,40.9478158
"158",302,2,236,NA,"mission","","Garder","MA","10/6/1878","10/10/1878",975,"",NA,"Springfield",NA,NA,NA,NA,"Paulist","",NA,NA,"Garder MA",-71.998133,42.5750883
"159",221,2,123,NA,"mission","St. Patrick's Church","Gold Hill","NV","5/30/1875","6/6/1875",660,"1",NA,"",NA,NA,NA,NA,"Paulist","",NA,NA,"Gold Hill NV",-119.6574011,39.2904678
"160",517,3,211,31,"mission","","Goshen","NY","5/30/1886","6/6/1886",680,"",NA,"",NA,NA,NA,NA,"","",NA,NA,"Goshen NY",-74.3243191,41.4020382
"161",316,2,356,NA,"mission","Church of the Holy Trinity","Greenfield","MA","9/14/1879","9/21/1879",550,"",NA,"",NA,NA,NA,NA,"Paulist","",NA,NA,"Greenfield MA",-72.5994104,42.587915
"162",201,2,95,NA,"mission","Church of St. Mary","Greenwood","NY","5/10/1874","5/17/1874",260,"",NA,"",NA,NA,NA,NA,"Paulist","",NA,NA,"Greenwood NY",-77.6483236,42.13507
"163",405,2,459,NA,"mission","","Gunnison","CO","5/8/1882","5/8/1882",NA,"",NA,"",NA,NA,NA,NA,"Paulist","",NA,NA,"Gunnison CO",-106.9253207,38.5458246
"164",338,2,382,NA,"mission","St. Mary's Church","Hagerstown","MD","10/15/1880","10/15/1880",410,"1",NA,"",NA,NA,NA,NA,"Paulist","",NA,NA,"Hagerstown MD",-77.7199932,39.6417629
"165",136,2,3,NA,"mission","St. Mary's Cathedral","Halifax","NS","11/30/1862","12/8/1862",5636,"4",NA,"Halifax",NA,NA,NA,NA,"Paulist","",NA,NA,"Halifax NS",-63.5753196,44.6488625
"166",393,2,451,NA,"mission","","Hamilton","NY","11/1/1881","11/1/1881",550,"",NA,"",NA,NA,NA,NA,"Paulist","",NA,NA,"Hamilton NY",-75.5446238,42.8270136
"167",438,3,62,NA,"mission","St. Mary's","Harford Co.","MD","10/28/1883","11/4/1883",217,"",NA,"",NA,NA,NA,NA,"","",NA,NA,"Harford Co. MD",-76.3637285,39.5838964
"168",25,1,51,25,"mission","St. Ignatius' Church","Harford County","MD","8/28/1853","9/10/1853",320,"",NA,"Baltimore",NA,NA,NA,NA,"Redemptorist","",NA,NA,"Harford County MD",-76.3637285,39.5838964
"169",282,2,207,NA,"mission","St. Paul's Church 117th St.","Harlem","NY","2/3/1878","2/17/1878",4539,"0",NA,"New York",NA,NA,NA,NA,"Paulist","",NA,NA,"Harlem NY",-73.9447994,40.8113824
"170",325,2,365,NA,"mission","","Harper's Ferry","WV","1/4/1880","1/11/1880",225,"2",NA,"Richmond",NA,NA,NA,NA,"Paulist","",NA,NA,"Harper's Ferry WV",-77.7388818,39.3253786
"171",460,3,94,NA,"mission","","Harper's Ferry","WV","3/19/1884","3/23/1884",250,"",2,"",NA,NA,NA,NA,"","",NA,NA,"Harper's Ferry WV",-77.7388818,39.3253786
"172",456,3,92,NA,"mission","","Harrisonburg","VA","2/10/1884","2/17/1884",72,"",NA,"",NA,NA,NA,NA,"","",NA,NA,"Harrisonburg VA",-78.8689155,38.4495688
"173",351,2,397,NA,"mission","St. Peter's Church","Hartford","CT","1/16/1881","1/30/1881",4288,"",NA,"",NA,NA,NA,NA,"Paulist","",NA,NA,"Hartford CT",-72.6850932,41.7637111
"174",381,2,435,NA,"mission","St. Peter's Church","Hartford","CT","1/8/1882","1/22/1882",4622,"2",NA,"",NA,752,1900,1970,"Paulist","",NA,NA,"Hartford CT",-72.6850932,41.7637111
"175",256,2,164,NA,"mission","Church of Ss. Peter and Paul","Hart","MN","11/26/1876","11/29/1876",215,"2",NA,"",NA,NA,NA,NA,"Paulist","",NA,NA,"Hart MN",-91.7398706,43.8755194
"176",249,2,155,NA,"mission","Church of the Guardian Angels","Hastings","MN","9/17/1876","9/26/1876",1050,"1",NA,"",NA,NA,NA,NA,"Paulist","",NA,NA,"Hastings MN",-92.8513706,44.7443293
"177",119,1,274,33,"mission","St. Gregory's Church","Haverhill","MA","1/20/1861","1/28/1861",1002,"4",NA,"Boston",NA,NA,NA,NA,"Paulist","",NA,NA,"Haverhill MA",-71.0772796,42.7762015
"178",461,3,95,NA,"mission","","Havre de Grace","MD","3/30/1884","4/6/1884",380,"1",NA,"",NA,NA,NA,NA,"","",NA,NA,"Havre de Grace MD",-76.091617,39.5492792
"179",439,3,63,NA,"mission","St. Ignatius' Church","Hickory","MD","11/4/1883","11/13/1883",563,"3",NA,"",NA,NA,NA,NA,"","",NA,NA,"Hickory MD",-75.5949108,38.3762854
"180",520,3,214,NA,"mission","","Highland Falls","NY","9/19/1886","9/26/1886",475,"",NA,"",NA,NA,NA,NA,"","",NA,NA,"Highland Falls NY",-73.9662504,41.3692605
"181",253,2,160,NA,"mission","Church of the Immaculate Conception","Highland","MN","10/29/1876","11/2/1876",370,"1",NA,"",NA,NA,NA,NA,"Paulist","",NA,NA,"Highland MN",-91.8701524,43.6807984
"182",62,1,97,62,"mission","St. Mary's Church","Hoboken","NJ","9/28/1856","10/5/1856",700,"7",NA,"Newark",NA,NA,NA,NA,"Redemptorist","",NA,NA,"Hoboken NJ",-74.0323626,40.7439905
"183",3,1,11,3,"mission","St. Mary's Church","Hollidaysburg","PA","5/18/1851","5/28/1851",1000,"",NA,"Pittsburgh",NA,NA,NA,NA,"Redemptorist","",NA,NA,"Hollidaysburg PA",-78.3889024,40.4272949
"184",123,1,282,37,"mission","","Holyoke","MA","4/28/1861","5/9/1861",1850,"5",NA,"Boston",NA,NA,NA,NA,"Paulist","",NA,NA,"Holyoke MA",-72.6162009,42.2042586
"185",148,2,15,NA,"mission","St. John's Church","Honesdale","PA","1/24/1864","2/1/1864",1400,"1",NA,"Philadelphia",NA,NA,NA,NA,"Paulist","",NA,NA,"Honesdale PA",-75.2587871,41.5767552
"186",422,3,34,NA,"mission","St. Marys Church","Houlton","ME","5/27/1883","6/3/1883",470,"2",NA,"",NA,NA,NA,NA,"","",NA,NA,"Houlton ME",-67.8402316,46.1261806
"187",116,1,263,30,"mission","St. Soryl's Church","Hudson City","NJ","11/4/1860","11/12/1860",1100,"1",NA,"Newark",NA,NA,NA,NA,"Paulist","",NA,NA,"Hudson City NJ",-73.9242251,41.1896081
"188",73,1,136,73,"mission","St. Mary's Church","Hudson","NY","3/22/1857","3/29/1857",800,"",NA,"",NA,NA,NA,NA,"Redemptorist","",NA,NA,"Hudson NY",-73.790959,42.2528649
"189",534,3,232,NA,"mission","","Huntington, Long Island","NY","11/7/1887","11/14/1886",416,"1",NA,"",NA,NA,NA,NA,"","",NA,NA,"Huntington, Long Island NY",-73.425676,40.8681539
"190",401,2,457,NA,"mission","","Idaho Springs","CO","2/19/1882","2/26/1882",100,"3",NA,"",NA,NA,NA,NA,"Paulist","",NA,NA,"Idaho Springs CO",-105.5136081,39.7424881
"191",297,2,233,NA,"mission","","","IL","11/14/1878","11/17/1878",93,"",NA,"",NA,NA,NA,NA,"Paulist","",NA,NA," IL",-89.3985283,40.6331249
"192",272,2,193,NA,"mission","St. John's Church","Indianapolis","IN","12/9/1877","12/22/1877",3790,"4",NA,"",NA,NA,NA,NA,"Paulist","",NA,NA,"Indianapolis IN",-86.158068,39.768403
"193",411,3,14,NA,"mission","St. Leo's Church","Irvington","NJ","12/17/1882","12/22/1882",125,"",NA,"",NA,NA,NA,NA,"","",NA,NA,"Irvington NJ",-74.2286435,40.7263249
"194",259,2,168,NA,"mission","Church of the Immaculate Conception","Ithaca","NY","12/31/1876","1/9/1877",1120,"7",NA,"Rochester",NA,NA,NA,NA,"Paulist","",NA,NA,"Ithaca NY",-76.5018807,42.4439614
"195",94,1,193,8,"mission","St. John's Church","Jackson","MI","11/28/1858","12/5/1858",450,"1",NA,"",NA,NA,NA,NA,"Paulist","",NA,NA,"Jackson MI",-84.4013462,42.245869
"196",498,3,179,NA,"mission","St. Thomas Aquinas's Church","Jamaica Plain","MA","11/29/1885","12/13/1885",2770,"",NA,"",NA,NA,1160,1610,"","",NA,NA,"Jamaica Plain MA",-71.1151431,42.3097365
"197",523,3,219,NA,"mission","St. Thomas Aquinas's Church","Jamaica Plain","MA","10/3/1886","10/17/1886",2700,"2",NA,"",NA,NA,NA,NA,"","",NA,NA,"Jamaica Plain MA",-71.1151431,42.3097365
"198",102,1,227,16,"mission","St. Mary's Church","Jersey City","NJ","10/2/1859","10/10/1859",1950,"3",NA,"Newark",1800,150,NA,NA,"Paulist","",NA,NA,"Jersey City NJ",-74.0776417,40.7281575
"199",135,2,2,NA,"mission","Church of the Immaculate Conception","Jersey City","NJ","10/12/1862","10/23/1862",2875,"",NA,"",NA,NA,NA,NA,"Paulist","",NA,NA,"Jersey City NJ",-74.0776417,40.7281575
"200",207,2,104,NA,"mission","St. Mary's Church","Jersey City","NJ","12/6/1874","12/20/1874",4800,"6",NA,"",NA,NA,NA,NA,"Paulist","",NA,NA,"Jersey City NJ",-74.0776417,40.7281575
"201",234,2,139,NA,"mission","Church of St. Michael","Jersey City","NJ","4/23/1876","5/7/1876",5000,"7",NA,"",NA,NA,NA,NA,"Paulist","",NA,NA,"Jersey City NJ",-74.0776417,40.7281575
"202",441,3,65,NA,"mission","St. Michael's Church","Jersey City","NJ","11/11/1883","12/2/1883",4764,"12",NA,"",NA,NA,NA,NA,"","",NA,NA,"Jersey City NJ",-74.0776417,40.7281575
"203",301,2,235,NA,"mission","Church of St. Paul of the Cross","Jersey City","NY","9/22/1878","10/2/1878",1343,"3",NA,"",NA,NA,NA,NA,"Paulist","",NA,NA,"Jersey City NY",-74.0776417,40.7281575
"204",4,1,12,4,"mission","Church of St. John Evangelist","Johnstown","PA","5/31/1851","6/8/1851",1000,"",NA,"Pittsburgh",NA,NA,NA,NA,"Redemptorist","",NA,NA,"Johnstown PA",-78.9219698,40.3267407
"205",320,2,359,NA,"mission","","Johnstown","PA","10/12/1879","10/26/1879",2344,"4",NA,"Pittsburgh",NA,NA,NA,NA,"Paulist","",NA,NA,"Johnstown PA",-78.9219698,40.3267407
"206",444,3,74,NA,"mission","St. Mary's Church","Joliet","IL","1/20/1884","2/3/1884",2480,"2",NA,"",NA,NA,1280,1200,"","",NA,NA,"Joliet IL",-88.0817251,41.525031
"207",92,1,189,6,"mission","St. Augustine's Church","Kalamazoo","MI","11/7/1858","11/14/1858",430,"2",NA,"",NA,NA,NA,NA,"Paulist","",NA,NA,"Kalamazoo MI",-85.5872286,42.2917069
"208",352,2,399,NA,"mission","St. Mark's Church","Kenastia","WI","3/6/1881","3/15/1881",714,"",NA,"",NA,NA,NA,NA,"Paulist","",NA,NA,"Kenastia WI",-87.8211854,42.5847425
"209",353,2,400,NA,"mission","St. Paul's Church","Kenastia","WI","3/20/1881","3/26/1881",400,"",NA,"",NA,NA,NA,NA,"Paulist","",NA,NA,"Kenastia WI",-87.8211854,42.5847425
"210",386,2,446,NA,"renewal","","Kenastia","WI","4/5/1882","4/9/1882",500,"",NA,"",NA,NA,NA,NA,"Paulist","",NA,NA,"Kenastia WI",-87.8211854,42.5847425
"211",516,3,208,30,"mission","","Kenoska","WI","5/23/1886","5/30/1886",750,"",NA,"",NA,NA,NA,NA,"","",NA,NA,"Kenoska WI",-87.8211854,42.5847425
"212",424,3,38,NA,"mission","St. Paul's Church","Kensington","CT","5/6/1883","5/13/1883",395,"",NA,"",NA,NA,NA,NA,"","",NA,NA,"Kensington CT",-72.7687083,41.6353769
"213",459,3,94,NA,"mission","","Keyset","WV","3/11/1884","3/16/1884",190,"",NA,"",NA,NA,NA,NA,"","",NA,NA,"Keyset WV",-78.9739156,39.4409277
"214",427,3,43,NA,"mission","St. John's Church","Kings Bridge","NY","9/16/1883","9/23/1883",540,"",NA,"",NA,NA,NA,NA,"","",NA,NA,"Kings Bridge NY",-73.9051362,40.8787108
"215",429,3,47,NA,"mission","","Kingston","MA","9/16/1883","9/19/1883",190,"",NA,"",NA,NA,NA,NA,"","",NA,NA,"Kingston MA",-70.7284785,41.9932752
"216",194,2,87,NA,"mission","Church of St. Joseph","Kingston","NY","2/22/1874","3/2/1874",1400,"1",NA,"",NA,NA,NA,NA,"Paulist","",NA,NA,"Kingston NY",-73.9973608,41.9270367
"217",112,1,251,26,"mission","Cathedral","Kingston","ON","4/15/1860","4/25/1860",2640,"5",NA,"Kingston",NA,NA,NA,NA,"Paulist","",NA,NA,"Kingston ON",-76.4859544,44.2311717
"218",293,2,230,NA,"mission","Church of Immaculate Conception","Lacon","IL","10/13/1878","10/20/1878",360,"0",NA,"Peoria",NA,NA,NA,NA,"Paulist","",NA,NA,"Lacon IL",-89.4112007,41.0247583
"219",251,2,157,NA,"mission","St. Mary's Church","Lake City and West Albany","MN","10/8/1876","10/17/1876",443,"2",NA,"",NA,NA,NA,NA,"Paulist","",NA,NA,"Lake City and West Albany MN",-92.341887,44.4131284
"220",156,2,27,NA,"mission","Church of St. Mary","Lancaster","OH","10/23/1864","10/31/1864",800,"3",NA,"",NA,NA,NA,NA,"Paulist","",NA,NA,"Lancaster OH",-82.5993294,39.7136754
"221",238,2,144,NA,"mission","St. Patrick's Church","Lanesboro","MN","10/8/1876","10/18/1876",620,"13",NA,"",NA,NA,NA,NA,"Paulist","",NA,NA,"Lanesboro MN",-91.9768224,43.7207974
"222",114,1,259,28,"mission","Church of the Immaculate Conception","Lawrence","MA","9/30/1860","10/12/1860",2150,"",NA,"Boston",NA,NA,NA,NA,"Paulist","",NA,NA,"Lawrence MA",-71.1631137,42.7070354
"223",400,2,456,NA,"mission","Church of the Immaculate Conception","Leadville","CO","1/15/1882","1/29/1882",1700,"5",NA,"",NA,NA,NA,NA,"Paulist","",NA,NA,"Leadville CO",-106.2925238,39.2508229
"224",315,2,354,NA,"mission","St. Leo's Church","Leominster","MA","5/18/1879","5/25/1879",725,"",NA,"",NA,NA,NA,NA,"Paulist","",NA,NA,"Leominster MA",-71.759794,42.5250906
"225",247,2,153,NA,"mission","St. Mary's Church","Le Sueur","MN","11/12/1876","11/19/1876",520,"2",NA,"",NA,NA,NA,NA,"Paulist","",NA,NA,"Le Sueur MN",-93.9088889,44.4658333
"226",48,1,76,48,"mission","","Lexington","KY","4/15/1855","4/25/1855",600,"3",NA,"Covington",NA,NA,NA,NA,"Redemptorist","",NA,NA,"Lexington KY",-84.5037164,38.0405837
"227",191,2,82,NA,"mission","Church of St. Bridget","Lexington","MA","1/4/1874","1/13/1874",400,"4",NA,"Boston",NA,NA,NA,NA,"Paulist","",NA,NA,"Lexington MA",-71.2289641,42.4430372
"228",345,2,390,NA,"mission","","Lexington","VA","10/24/1880","10/28/1880",24,"",NA,"",NA,NA,NA,NA,"Paulist","",NA,NA,"Lexington VA",-79.4428157,37.7840208
"229",86,1,158,86,"mission","","Little Falls","NY","3/21/1858","3/28/1858",800,"3",NA,"",NA,NA,NA,NA,"Redemptorist","",NA,NA,"Little Falls NY",-74.8595957,43.0434039
"230",328,2,368,NA,"mission","St. Mary's Church","Little Falls","NY","1/4/1880","1/14/1880",1780,"9",NA,"",NA,NA,NA,NA,"Paulist","",NA,NA,"Little Falls NY",-74.8595957,43.0434039
"231",515,3,207,29,"mission","St. Mary's Star of the Sea","Long Branch","NY","5/23/1886","5/30/1886",515,"",NA,"Trenton",NA,NA,NA,NA,"","",NA,NA,"Long Branch NY",-73.9923596,40.3042778
"232",2,1,6,2,"mission","St. Michael's Church","Loretto","PA","4/27/1851","5/11/1851",1700,"",NA,"Pittsburgh",NA,100,NA,NA,"Redemptorist","",NA,NA,"Loretto PA",-78.630296,40.5031263
"233",19,1,38,19,"mission","Cathedral of the Assumption","Louisville","KY","10/17/1852","10/31/1852",2000,"several",NA,"Louisville",NA,NA,NA,NA,"Redemptorist","",NA,NA,"Louisville KY",-85.7584557,38.2526647
"234",380,2,434,NA,"mission","St. Patrick's Church","Lowell","MA","1/1/1882","1/7/1882",5800,"",NA,"",NA,NA,NA,NA,"Paulist","",NA,NA,"Lowell MA",-71.3161718,42.6334247
"235",464,3,98,NA,"mission","St. Patrick's Church","Lowell","MA","5/5/1884","5/5/1884",6508,"",NA,"",NA,NA,2437,4071,"","",NA,NA,"Lowell MA",-71.3161718,42.6334247
"236",454,3,91,NA,"mission","","Lynchburg","VA","1/27/1884","2/3/1884",625,"2",NA,"",NA,NA,NA,NA,"","",NA,NA,"Lynchburg VA",-79.1422464,37.4137536
"237",300,2,234,NA,"mission","","Lyons","IA","11/24/1878","12/1/1878",860,"1",NA,"Dubuque",NA,NA,NA,NA,"Paulist","",NA,NA,"Lyons IA",-95.7932008,40.9545835
"238",67,1,114,67,"mission","Church of the Assumption of the Blessed Virgin Mary","Macon","GA","12/21/1856","12/28/1856",210,"several",NA,"Savannah",NA,NA,NA,NA,"Redemptorist","",NA,NA,"Macon GA",-83.6324022,32.8406946
"239",309,2,347,NA,"mission","St. Raphael's Church","Madison","WI","1/26/1879","2/5/1879",1896,"8",NA,"",NA,NA,NA,NA,"Paulist","",NA,NA,"Madison WI",-89.4012302,43.0730517
"240",343,2,388,NA,"mission","","Mamaroneck","NY","12/5/1880","12/12/1880",490,"",NA,"",NA,NA,NA,NA,"Paulist","",NA,NA,"Mamaroneck NY",-73.7326309,40.9487097
"241",476,3,131,NA,"mission","St. Thomas's Church","Mamaroneck","NY","3/8/1885","3/15/1885",630,"6",NA,"",NA,NA,NA,NA,"","",NA,NA,"Mamaroneck NY",-73.7326309,40.9487097
"242",166,2,39,NA,"mission","Church of St. Ann","Manchester","NH","9/24/1865","10/5/1865",2600,"",NA,"",NA,NA,NA,NA,"Paulist","",NA,NA,"Manchester NH",-71.4547891,42.9956397
"243",47,1,75,47,"mission","Church of the Annunciation","Manhattanville","NY","3/18/1855","4/1/1855",1400,"",NA,"New York",NA,NA,NA,NA,"Redemptorist","",NA,NA,"Manhattanville NY",-73.9558333,40.8169443
"244",204,2,100,NA,"mission","Church of the Annunciation","Manhattanville","NY","10/4/1874","10/14/1874",2600,"6",NA,"",NA,NA,NA,NA,"Paulist","",NA,NA,"Manhattanville NY",-73.9558333,40.8169443
"245",511,3,201,NA,"retreat","Church of the Annunciation","Manhattanville","NY","4/4/1886","4/11/1886",1500,"",NA,"",NA,NA,NA,NA,"","",NA,NA,"Manhattanville NY",-73.9558333,40.8169443
"246",329,2,369,NA,"mission","","Marine City","MI","1/25/1880","2/1/1800",1000,"3",NA,"",NA,NA,NA,NA,"Paulist","",NA,NA,"Marine City MI",-82.492132,42.7194778
"247",354,2,400,NA,"mission","","Marine City","MI","3/6/1881","3/15/1881",1055,"3",NA,"",NA,NA,NA,NA,"Paulist","",NA,NA,"Marine City MI",-82.492132,42.7194778
"248",469,3,111,NA,"mission","","Marseilles","IL","10/21/1884","10/21/1884",150,"",NA,"",NA,NA,NA,NA,"","",NA,NA,"Marseilles IL",-88.7081293,41.3308666
"249",276,2,199,NA,"mission","Church Regina Coeli","Marshall","IL","11/4/1877","11/13/1877",340,"7",NA,"Alton",NA,NA,NA,NA,"Paulist","",NA,NA,"Marshall IL",-87.6936384,39.3914252
"250",365,2,413,NA,"mission","St. Mary's Church (Regina Coeli)","Marshall","IL","9/18/1881","9/25/1881",382,"1",NA,"Alton",NA,NA,NA,NA,"Paulist","",NA,NA,"Marshall IL",-87.6936384,39.3914252
"251",93,1,192,7,"mission","Church of the Immaculate Conception","Marshall","MI","11/21/1858","11/26/1858",575,"1",NA,"",NA,NA,NA,NA,"Paulist","",NA,NA,"Marshall MI",-84.9633148,42.2722641
"252",327,2,367,NA,"mission","","Martinsburg","WV","1/25/1880","2/2/1880",582,"",NA,"",NA,NA,NA,NA,"Paulist","",NA,NA,"Martinsburg WV",-77.9638869,39.4562099
"253",457,3,93,NA,"mission","","Martinsburg","WV","2/17/1884","2/24/1884",670,"5",NA,"",NA,NA,NA,NA,"","",NA,NA,"Martinsburg WV",-77.9638869,39.4562099
"254",218,2,120,NA,"mission","St. Joseph's Cathedral","Marysville","CA","5/16/1875","5/24/1875",550,"5",NA,"Sacramento",NA,NA,NA,NA,"Paulist","",NA,NA,"Marysville CA",-121.5913547,39.1457253
"255",110,1,249,24,"mission","St. Rose's Church","Meriden","CT","3/11/1860","3/18/1860",810,"",NA,"Hartford",770,40,NA,NA,"Paulist","",NA,NA,"Meriden CT",-72.8070435,41.5381535
"256",108,1,244,22,"mission","St. John's Church","Middletown","CT","2/5/1860","2/14/1860",2270,"3",NA,"Hartford",2100,170,NA,NA,"Paulist","",NA,NA,"Middletown CT",-72.6506488,41.5623209
"257",412,3,15,NA,"mission","","Milford","MA","12/31/1882","1/10/1883",2700,"1",NA,"",NA,NA,NA,NA,"","",NA,NA,"Milford MA",-71.5163049,42.1398577
"258",163,2,36,NA,"mission","Church of St. Gregory Thaumaturgus","Milton","MA","3/12/1865","3/19/1865",1200,"1",NA,"",NA,NA,NA,NA,"Paulist","",NA,NA,"Milton MA",-71.0661653,42.2495321
"259",170,2,54,NA,"mission","Church of St. Gregory Thaumaturgus","Milton","MA","2/25/1872","3/3/1872",2000,"",NA,"",NA,NA,NA,NA,"Paulist","",NA,NA,"Milton MA",-71.0661653,42.2495321
"260",356,2,403,NA,"mission","St. John's Cathedral","Milwaukee","WI","3/30/1881","4/3/1881",500,"",NA,"",NA,NA,NA,NA,"Paulist","",NA,NA,"Milwaukee WI",-87.9064736,43.0389025
"261",385,2,444,NA,"mission","St. John's Cathedral","Milwaukee","WI","3/19/1882","4/2/1882",3270,"3",NA,"",NA,NA,NA,NA,"Paulist","",NA,NA,"Milwaukee WI",-87.9064736,43.0389025
"262",514,3,204,28,"mission","St. John's Cathedral","Milwaukee","WI","5/2/1886","5/16/1886",2946,"",NA,"",NA,NA,1350,1596,"","",NA,NA,"Milwaukee WI",-87.9064736,43.0389025
"263",227,2,132,NA,"mission","Church of the Immaculate Conception","Minneapolis","MN","11/7/1875","11/21/1875",2200,"12",NA,"",NA,NA,NA,NA,"Paulist","",NA,NA,"Minneapolis MN",-93.26667,44.983334
"264",521,3,217,NA,"mission","Church of the Immaculate Conception","Minneapolis","MN","9/19/1886","9/27/1886",2265,"2",NA,"",NA,NA,NA,NA,"","",NA,NA,"Minneapolis MN",-93.26667,44.983334
"265",35,1,62,35,"mission","Cathedral of the Immaculate Conception","Mobile","AL","3/4/1854","3/16/1854",1300,"2",NA,"Mobile",NA,NA,NA,NA,"Redemptorist","",NA,NA,"Mobile AL",-88.0430541,30.6943566
"266",508,3,195,24,"mission","","Mobile","AL","2/28/1886","3/8/1886",900,"4",NA,"",NA,NA,NA,NA,"","",NA,NA,"Mobile AL",-88.0430541,30.6943566
"267",292,2,229,NA,"mission","Church of the Epiphany","Monmouth","IL","9/29/1878","10/7/1878",510,"1",NA,"Peoria",NA,NA,NA,NA,"Paulist","",NA,NA,"Monmouth IL",-90.6473576,40.9114271
"268",296,2,232,NA,"mission","","Morrison","IL","11/3/1878","11/10/1878",127,"",NA,"",NA,NA,NA,NA,"Paulist","",NA,NA,"Morrison IL",-89.9651186,41.809751
"269",479,3,136,NA,"mission","St. Augustine's Church","Morrissania","NY","4/12/1885","4/19/1885",997,"5",NA,"",NA,NA,NA,NA,"","",NA,NA,"Morrissania NY",-73.9109977,40.8250663
"270",518,3,211,NA,"retreat","","Morristown","NJ","5/1/1886","5/1/1886",800,"",NA,"",NA,NA,NA,NA,"","",NA,NA,"Morristown NJ",-74.4815438,40.7967667
"271",403,2,458,NA,"mission","","Mount Robinson","CO","4/16/1882","4/24/1882",120,"",NA,"",NA,NA,NA,NA,"Paulist","",NA,NA,"Mount Robinson CO",-105.3452765,38.1138903
"272",168,2,51,NA,"mission","Church of the Immaculate Conception","Nashua","NH","4/30/1871","5/7/1871",1261,"",NA,"Portland",NA,NA,NA,NA,"Paulist","",NA,NA,"Nashua NH",-71.467566,42.7653662
"273",74,1,137,74,"mission","St. James' Church ","Newark","NJ","9/26/1857","10/6/1857",1900,"",NA,"",NA,NA,NA,NA,"Redemptorist","",NA,NA,"Newark NJ",-74.1723667,40.735657
"274",165,2,38,NA,"mission","Church of St. John","Newark","NJ","5/7/1865","5/14/1865",1400,"",NA,"",NA,NA,NA,NA,"Paulist","",NA,NA,"Newark NJ",-74.1723667,40.735657
"275",44,1,71,44,"mission","St. Patrick's Cathedral","Newark","NK","12/31/1854","1/14/1855",4400,"",NA,"Newark",NA,NA,NA,NA,"Redemptorist","",NA,NA,"Newark NK",-74.1723667,40.735657
"276",27,1,52,27,"mission","St. Peter's Church","New Brighton, Staten Island","NY","9/29/1853","10/3/1853",1200,"",NA,"New York",NA,NA,NA,NA,"Redemptorist","",NA,NA,"New Brighton, Staten Island NY",-74.090226,40.6404369
"277",109,1,NA,23,"mission","St. Mary's Church","New Britain","CT","2/19/1860","2/28/1860",1230,"",NA,"Hartford",NA,NA,NA,NA,"Paulist","",NA,NA,"New Britain CT",-72.7795419,41.6612104
"278",446,3,78,NA,"mission","St. Mary's Church","New Britain","CT","3/2/1884","3/16/1884",4642,"",9,"",NA,230,2200,2212,"","",NA,NA,"New Britain CT",-72.7795419,41.6612104
"279",57,1,89,57,"mission","St. Patrick's Church","Newburgh","NY","3/2/1856","3/13/1856",1350,"several",NA,"New York",NA,NA,NA,NA,"Redemptorist","",NA,NA,"Newburgh NY",-74.0104178,41.5034271
"280",482,3,141,NA,"mission","St. Patrick's Church","Newburgh","NY","4/26/1885","5/10/1885",2485,"1",NA,"",NA,NA,1135,1350,"","",NA,NA,"Newburgh NY",-74.0104178,41.5034271
"281",308,2,346,NA,"mission","Church of the Holy Rosary","Newburgh","OH","1/5/1879","1/20/1879",1960,"",NA,"",NA,NA,NA,NA,"Paulist","",NA,NA,"Newburgh OH",-82.9409387,40.0092839
"282",121,1,278,35,"mission","Church of the Immaculate Conception","Newburyport","MA","3/3/1861","3/13/1861",1900,"",NA,"Boston",NA,NA,NA,NA,"Paulist","",NA,NA,"Newburyport MA",-70.8772751,42.8125913
"283",96,1,200,10,"mission","St. Mary's Church","New Haven","CT","1/2/1859","1/14/1859",2060,"4",NA,"Hartford",NA,NA,NA,NA,"Paulist","",NA,NA,"New Haven CT",-72.9278835,41.308274
"284",206,2,103,NA,"mission","St. Mary's Church","New Haven","CT","11/8/1874","11/19/1874",2600,"8",NA,"",NA,NA,NA,NA,"Paulist","",NA,NA,"New Haven CT",-72.9278835,41.308274
"285",382,2,437,NA,"mission","","New Lebanon","NY","1/8/1882","1/15/1882",410,"1",NA,"",NA,NA,NA,NA,"Paulist","",NA,NA,"New Lebanon NY",-73.3964977,42.4639722
"286",186,2,76,NA,"mission","St. Patrick's Church","New London","CT","10/26/1873","11/4/1873",1400,"2",NA,"",NA,NA,NA,NA,"Paulist","",NA,NA,"New London CT",-72.0995209,41.3556539
"287",312,2,350,NA,"mission","St Mary's Church","New London","CT","3/23/1879","4/2/1879",1826,"4",NA,"",NA,NA,NA,NA,"Paulist","",NA,NA,"New London CT",-72.0995209,41.3556539
"288",33,1,58,33,"mission","St. Patrick's Church","New Orleans","LA","1/15/1854","1/29/1854",3000,"several",NA,"New Orleans",NA,NA,NA,NA,"Redemptorist","",NA,NA,"New Orleans LA",-90.0715323,29.9510658
"289",34,1,61,34,"mission","St. Joseph's Church","New Orleans","LA","2/12/1854","2/21/1854",1300,"several",NA,"New Orleans",NA,NA,NA,NA,"Redemptorist","",NA,NA,"New Orleans LA",-90.0715323,29.9510658
"290",36,1,63,36,"mission","St. Alphonsus' Church","New Orleans","LA","3/26/1854","4/5/1854",2000,"",NA,"New Orleans",NA,NA,NA,NA,"Redemptorist","",NA,NA,"New Orleans LA",-90.0715323,29.9510658
"291",37,1,64,37,"mission","St. Peter's Church","New Orleans","LA","4/9/1854","4/17/1854",1700,"2",NA,"New Orleans",NA,NA,NA,NA,"Redemptorist","",NA,NA,"New Orleans LA",-90.0715323,29.9510658
"292",38,1,64,38,"mission","St. John Baptist's Church","New Orleans","LA","4/23/1854","4/30/1854",1500,"2",NA,"New Orleans",NA,NA,NA,NA,"Redemptorist","",NA,NA,"New Orleans LA",-90.0715323,29.9510658
"293",39,1,65,39,"mission","St. Theresa's Church","New Orleans","LA","5/14/1854","5/21/1854",1500,"",NA,"New Orleans",NA,NA,NA,NA,"Redemptorist","",NA,NA,"New Orleans LA",-90.0715323,29.9510658
"294",509,3,198,25,"mission","Church of St. John the Baptist","New Orleans","LA","3/1/1886","3/1/1886",4300,"",NA,"",NA,NA,NA,NA,"","",NA,NA,"New Orleans LA",-90.0715323,29.9510658
"295",126,1,287,40,"mission","","Newport","NY","12/29/1861","1/5/1862",370,"1",NA,"",NA,NA,NA,NA,"Paulist","",NA,NA,"Newport NY",-75.0143244,43.1859025
"296",374,2,428,NA,"mission","Church of the Immaculate Conception","New Richmond","WI","12/18/1881","12/25/1881",404,"7",NA,"",NA,NA,NA,NA,"Paulist","",NA,NA,"New Richmond WI",-92.5365865,45.1230213
"297",364,2,412,NA,"mission","St. Joseph's Church","New York City","NY","10/1/1881","10/8/1881",5000,"",NA,"",NA,NA,NA,NA,"Paulist","",NA,NA,"New York City NY",-74.0059731,40.7143528
"298",1,1,1,1,"mission","St. Joseph's Church","New York","NY","4/6/1851","4/20/1851",6000,"",NA,"New York",5600,400,NA,NA,"Redemptorist","",NA,NA,"New York NY",-74.0059731,40.7143528
"299",5,1,15,5,"mission","St. Peter's Church","New York","NY","9/28/1851","10/12/1851",4000,"",NA,"New York",NA,NA,NA,NA,"Redemptorist","",NA,NA,"New York NY",-74.0059731,40.7143528
"300",6,1,18,6,"mission","St. Patrick's Cathedral","New York","NY","10/19/1851","11/3/1851",7000,"",NA,"New York",NA,NA,NA,NA,"Redemptorist","",NA,NA,"New York NY",-74.0059731,40.7143528
"301",29,1,53,29,"mission","St. Mary's Church","New York","NY","10/16/1853","10/30/1853",7800,"",NA,"New York",NA,NA,NA,NA,"Redemptorist","",NA,NA,"New York NY",-74.0059731,40.7143528
"302",55,1,86,55,"mission","St. Stephen's Church","New York","NY","1/6/1856","1/18/1856",4000,"",NA,"New York",NA,NA,NA,NA,"Redemptorist","",NA,NA,"New York NY",-74.0059731,40.7143528
"303",88,1,172,2,"mission","St. Bridget's Church","New York","NY","5/2/1858","5/16/1858",5700,"15",NA,"",NA,NA,NA,NA,"Paulist","",NA,NA,"New York NY",-74.0059731,40.7143528
"304",90,1,183,4,"mission","St. Peter's Cathedral","New York","NY","10/10/1858","10/17/1858",2000,"",NA,"",NA,NA,NA,NA,"Paulist","",NA,NA,"New York NY",-74.0059731,40.7143528
"305",103,1,230,17,"mission","St. Mary's Church","New York","NY","10/16/1859","10/23/1859",3500,"5",NA,"New York",NA,NA,NA,NA,"Paulist","",NA,NA,"New York NY",-74.0059731,40.7143528
"306",105,1,237,19,"mission","Church of St. Paul the Apostle","New York","NY","12/18/1859","12/25/1859",800,"",NA,"New York",725,75,NA,NA,"Paulist","",NA,NA,"New York NY",-74.0059731,40.7143528
"307",111,1,250,25,"mission","Church of St. Paul the Apostle","New York","NY","3/25/1860","3/28/1860",925,"",NA,"New York",NA,NA,NA,NA,"Paulist","",NA,NA,"New York NY",-74.0059731,40.7143528
"308",117,1,266,31,"mission","St. James Church","New York","NY","11/25/1860","12/9/1860",6950,"10",NA,"New York",NA,NA,NA,NA,"Paulist","",NA,NA,"New York NY",-74.0059731,40.7143528
"309",125,1,285,39,"mission","St. Michael's Church","New York","NY","11/17/1861","11/28/1861",4000,"",NA,"New York",NA,NA,NA,NA,"Paulist","",NA,NA,"New York NY",-74.0059731,40.7143528
"310",130,1,293,44,"mission","Church of the Immaculate Conception","New York","NY","3/2/1862","3/16/1862",6800,"1",NA,"New York",NA,NA,NA,NA,"Paulist","",NA,NA,"New York NY",-74.0059731,40.7143528
"311",131,1,295,45,"mission","St. Stephen's Church","New York","NY","3/30/1862","4/6/1862",2400,"",NA,"New York",NA,NA,NA,NA,"Paulist","",NA,NA,"New York NY",-74.0059731,40.7143528
"312",137,2,4,NA,"mission","Nativity Church","New York","NY","1/4/1863","1/16/1863",3500,"",NA,"New York",NA,NA,NA,NA,"Paulist","",NA,NA,"New York NY",-74.0059731,40.7143528
"313",147,2,14,NA,"mission","St. Theresa's ","New York","NY","1/3/1864","1/15/1864",4500,"6",NA,"New York",NA,NA,NA,NA,"Paulist","",NA,NA,"New York NY",-74.0059731,40.7143528
"314",177,2,61,NA,"mission","St. Theresa's Church","New York","NY","1/12/1873","1/26/1873",6600,"10",NA,"New York",NA,NA,NA,NA,"Paulist","",NA,NA,"New York NY",-74.0059731,40.7143528
"315",180,2,65,NA,"mission","Church of St. Paul the Apostle","New York","NY","3/16/1873","3/30/1873",5500,"",NA,"New York",NA,NA,NA,NA,"Paulist","",NA,NA,"New York NY",-74.0059731,40.7143528
"316",183,2,70,NA,"mission","Church of the Holy Name","New York","NY","5/18/1873","5/25/1873",1030,"",NA,"New York",NA,NA,NA,NA,"Paulist","",NA,NA,"New York NY",-74.0059731,40.7143528
"317",199,2,94,NA,"mission","Church of the Nativity","New York","NY","4/12/1874","4/28/1874",4280,"6",NA,"New York",NA,NA,NA,NA,"Paulist","",NA,NA,"New York NY",-74.0059731,40.7143528
"318",262,2,173,NA,"mission","Church of the Epiphany","New York","NY","2/11/1877","2/25/1877",5300,"0",NA,"",NA,NA,NA,NA,"Paulist","",NA,NA,"New York NY",-74.0059731,40.7143528
"319",263,2,175,NA,"mission","St. Bridget's Church","New York","NY","3/4/1877","3/18/1877",8000,"15",NA,"",NA,NA,NA,NA,"Paulist","",NA,NA,"New York NY",-74.0059731,40.7143528
"320",280,2,204,NA,"mission","Church of St. Paul the Apostle","New York","NY","1/6/1878","1/27/1878",6200,"6",NA,"New York",NA,NA,NA,NA,"Paulist","",NA,NA,"New York NY",-74.0059731,40.7143528
"321",323,2,362,NA,"mission","Church of St. Paul the Apostle","New York","NY","11/30/1879","12/18/1879",5750,"",NA,"",NA,NA,NA,NA,"Paulist","",NA,NA,"New York NY",-74.0059731,40.7143528
"322",335,2,376,NA,"mission","St. Jerome's Church, 137th St. and Alexander Avenue","New York","NY","4/25/1880","5/9/1880",2325,"5",NA,"New York",NA,NA,NA,NA,"Paulist","",NA,NA,"New York NY",-74.0059731,40.7143528
"323",383,2,439,NA,"mission","St. Rose of Lima","New York","NY","2/5/1882","2/19/1882",4310,"5",NA,"",NA,NA,NA,NA,"Paulist","",NA,NA,"New York NY",-74.0059731,40.7143528
"324",396,2,453,NA,"jubilee retreat","St. Joseph's","New York","NY","11/6/1881","11/20/1881",5000,"3",NA,"",NA,NA,NA,NA,"Paulist","",NA,NA,"New York NY",-74.0059731,40.7143528
"325",407,3,6,NA,"mission","St. Jerome's Church, 137th St. and Alexander Ave.","New York","NY","10/1/1882","10/16/1882",2210,"1",NA,"New York",NA,NA,NA,NA,"","",NA,NA,"New York NY",-74.0059731,40.7143528
"326",413,3,17,NA,"mission","St. Paul the Apostle","New York","NY","12/31/1882","1/28/1883",6825,"21",NA,"",NA,NA,NA,NA,"","",NA,NA,"New York NY",-74.0059731,40.7143528
"327",415,3,23,NA,"mission","St. Bridget's Church","New York","NY","3/4/1883","3/25/1883",6082,"9",NA,"",NA,NA,NA,NA,"","",NA,NA,"New York NY",-74.0059731,40.7143528
"328",417,3,29,NA,"retreat","St. Rose of Lima","New York","NY","4/15/1883","4/22/1883",850,"",NA,"",NA,NA,NA,NA,"","",NA,NA,"New York NY",-74.0059731,40.7143528
"329",442,3,68,NA,"mission","Church of St. Rose of Lima","New York","NY","12/9/1883","12/23/1883",4410,"7",NA,"New York",NA,215,1703,2412,"","",NA,NA,"New York NY",-74.0059731,40.7143528
"330",463,3,97,NA,"retreat","St. Paul's Church","New York","NY","4/27/1884","5/4/1884",1000,"",NA,"",NA,NA,NA,NA,"","",NA,NA,"New York NY",-74.0059731,40.7143528
"331",466,3,104,NA,"mission","St. Jerome's Church","New York","NY","9/28/1884","10/5/1884",2475,"4",NA,"",NA,NA,NA,NA,"","",NA,NA,"New York NY",-74.0059731,40.7143528
"332",470,3,113,NA,"mission","St. James's Church","New York","NY","11/9/1884","12/11/1884",11020,"12",NA,"",NA,1465,3805,5750,"","",NA,NA,"New York NY",-74.0059731,40.7143528
"333",472,3,121,NA,"retreat","Church of the Immaculate Conception","New York","NY","1/11/1885","1/19/1885",5000,"",NA,"",NA,NA,NA,NA,"","",NA,NA,"New York NY",-74.0059731,40.7143528
"334",473,3,122,NA,"retreat","Manhattan College","New York","NY","1/27/1885","1/29/1885",260,"",NA,"",NA,NA,NA,NA,"","",NA,NA,"New York NY",-74.0059731,40.7143528
"335",474,3,123,NA,"mission","Church of St. Paul the Apostle","New York","NY","2/1/1885","2/15/1885",6950,"10",NA,"",NA,500,2750,3700,"","",NA,NA,"New York NY",-74.0059731,40.7143528
"336",501,3,183,NA,"mission","St. James's Church","New York","NY","1/3/1886","1/17/1886",8700,"11",NA,"",NA,NA,NA,NA,"","",NA,NA,"New York NY",-74.0059731,40.7143528
"337",503,3,185,NA,"mission","Church of the Immaculate Conception","New York","NY","1/24/1886","2/21/1886",11052,"20",NA,"",NA,NA,NA,NA,"","",NA,NA,"New York NY",-74.0059731,40.7143528
"338",507,3,192,23,"mission","St. Joseph's Church","New York","NY","3/14/1886","3/28/1886",5900,"4",NA,"",NA,NA,NA,NA,"","",NA,NA,"New York NY",-74.0059731,40.7143528
"339",510,3,200,26,"mission","St. Bernard's Church","New York","NY","4/4/1886","4/18/1886",5535,"",NA,"",NA,NA,2405,3130,"","",NA,NA,"New York NY",-74.0059731,40.7143528
"340",512,3,201,NA,"retreat","St. Teresa's Church","New York","NY","4/11/1886","4/18/1886",2700,"",NA,"",NA,NA,NA,NA,"","",NA,NA,"New York NY",-74.0059731,40.7143528
"341",536,3,233,NA,"retreat","St. Bernard's Church","New York","NY","12/5/1886","12/12/1886",2700,"",NA,"",NA,NA,NA,NA,"","",NA,NA,"New York NY",-74.0059731,40.7143528
"342",30,1,53,30,"mission","St. Patrick's Church","Norfolk","VA","11/13/1853","11/24/1853",500,"many",NA,"Richmond",NA,NA,NA,NA,"Redemptorist","",NA,NA,"Norfolk VA",-76.2858726,36.8507689
"343",58,1,91,58,"mission","St. Patrick's Church","Norfolk","VA","3/30/1856","4/6/1856",400,"",NA,"Richmond",NA,NA,NA,NA,"Redemptorist","",NA,NA,"Norfolk VA",-76.2858726,36.8507689
"344",450,3,87,NA,"mission","","Norfolk","VA","12/30/1883","1/6/1884",850,"4",NA,"",NA,NA,NA,NA,"","",NA,NA,"Norfolk VA",-76.2858726,36.8507689
"345",151,2,21,NA,"mission","Church of St. Patrick","North Bridgewater","MA","4/3/1864","4/10/1864",1100,"1",NA,"",NA,NA,NA,NA,"Paulist","",NA,NA,"North Bridgewater MA",-70.9750541,41.9903519
"346",169,2,53,NA,"mission","Church of St. Patrick","North Bridgewater","MA","10/29/1871","11/5/1871",1400,"",NA,"Boston",NA,NA,NA,NA,"Paulist","",NA,NA,"North Bridgewater MA",-70.9750541,41.9903519
"347",331,2,370,NA,"mission","","Northfield","MI","2/8/1880","2/15/1880",523,"7",NA,"",NA,NA,NA,NA,"Paulist","",NA,NA,"Northfield MI",-83.7433813,42.4003857
"348",288,2,216,NA,"mission","Church of St. Bridget","North Manchester","CT","5/5/1878","5/5/1878",645,"1",NA,"Hartford",NA,NA,NA,NA,"Paulist","",NA,NA,"North Manchester CT",-72.5215009,41.7759301
"349",113,1,255,27,"mission","St. Mary's Church","Norwich","CT","5/6/1860","5/16/1860",1900,"5",NA,"",NA,NA,NA,NA,"Paulist","",NA,NA,"Norwich CT",-72.0759105,41.5242649
"350",211,2,111,NA,"mission","St. Mary's Church","Oakland","CA","3/7/1875","3/16/1875",1700,"1",NA,"",NA,NA,NA,NA,"Paulist","",NA,NA,"Oakland CA",-122.2711137,37.8043637
"351",295,2,232,NA,"mission","Church of St. Patrick","O'Fallon","IL","11/3/1878","11/10/1878",380,"1",NA,"Chicago",NA,NA,NA,NA,"Paulist","",NA,NA,"O'Fallon IL",-89.910991,38.592323
"352",208,2,105,NA,"mission","St. Mary's Cathedral","Ogdensburg","NY","1/3/1875","1/14/1875",1850,"6",NA,"Ogdensburg",NA,NA,NA,NA,"Paulist","",NA,NA,"Ogdensburg NY",-75.4863364,44.6942291
"353",452,3,89,NA,"mission","","Old Point Comfort","VA","1/15/1884","1/17/1884",170,"",NA,"",NA,NA,NA,NA,"","",NA,NA,"Old Point Comfort VA",-76.3113315,37.0004248
"354",223,2,125,NA,"mission","","Ophir City","UT","6/20/1875","6/25/1875",37,"1",NA,"",NA,NA,NA,NA,"Paulist","",NA,NA,"Ophir City UT",-112.2585566,40.36939
"355",129,1,292,43,"mission","St. John's Church","Orange","NJ","2/2/1862","2/9/1862",1000,"2",NA,"",NA,NA,NA,NA,"Paulist","",NA,NA,"Orange NJ",-74.2326478,40.7706187
"356",392,2,450,NA,"mission","","Oriskany Falls","NY","5/15/1882","5/15/1882",300,"1",NA,"",NA,NA,NA,NA,"Paulist","",NA,NA,"Oriskany Falls NY",-75.4610076,42.9392363
"357",370,2,421,NA,"mission","St. Peter's Church","Oshkosh","WI","10/23/1881","10/30/1881",720,"1",NA,"",NA,NA,NA,NA,"Paulist","",NA,NA,"Oshkosh WI",-88.5426136,44.0247062
"358",467,3,107,NA,"mission","St. Columba's Church","Ottowa","IL","10/14/1884","10/21/1884",1675,"",NA,"",NA,NA,NA,NA,"","",NA,NA,"Ottowa IL",-88.8425769,41.3455892
"359",198,2,93,NA,"mission","Church of the Holy Cross","Ovid","NY","3/22/1874","3/29/1874",700,"3",NA,"",NA,NA,NA,NA,"Paulist","",NA,NA,"Ovid NY",-76.8230111,42.6764593
"360",254,2,162,NA,"mission","Church of the Sacred Heart","Owatonna","MN","11/5/1876","11/12/1876",400,"3",NA,"",NA,NA,NA,NA,"Paulist","",NA,NA,"Owatonna MN",-93.2259349,44.0855572
"361",528,3,225,NA,"mission","Church of the Sacred Heart","Owatonna","MN","10/31/1886","11/7/1886",460,"",NA,"",NA,NA,NA,NA,"","",NA,NA,"Owatonna MN",-93.2259349,44.0855572
"362",533,3,232,NA,"mission","","Oyster Bay, Long Island","NY","10/24/1886","10/28/1886",294,"",NA,"",NA,NA,NA,NA,"","",NA,NA,"Oyster Bay, Long Island NY",-73.5320685,40.8656543
"363",277,2,200,NA,"mission","Church of St. Mary","Paris","IL","11/18/1877","11/25/1877",462,"2",NA,"Alton",NA,NA,NA,NA,"Paulist","",NA,NA,"Paris IL",-87.6961374,39.611146
"364",366,2,414,NA,"mission","Church of the Immaculate Conception","Paris","IL","9/25/1881","10/2/1881",375,"2",NA,"",NA,NA,NA,NA,"Paulist","",NA,NA,"Paris IL",-87.6961374,39.611146
"365",41,1,67,41,"mission","","Patterson","NJ","10/29/1854","11/9/1854",2700,"",NA,"",NA,NA,NA,NA,"Redemptorist","",NA,NA,"Patterson NJ",-74.171811,40.9167654
"366",231,2,136,NA,"mission","Church of St. Michael","Penn Yan","NY","1/30/1876","2/9/1876",800,"2",NA,"Rochester",NA,NA,NA,NA,"Paulist","",NA,NA,"Penn Yan NY",-77.0538577,42.6609026
"367",486,3,152,NA,"mission","","Perth Amboy","NJ","9/13/1885","9/20/1885",1042,"",NA,"",NA,NA,NA,NA,"","",NA,NA,"Perth Amboy NJ",-74.2654234,40.5067723
"368",61,1,97,61,"mission","","Petersburg","VA","4/13/1856","4/18/1856",210,"",NA,"Richmond",NA,NA,NA,NA,"Redemptorist","",NA,NA,"Petersburg VA",-77.4019267,37.2279279
"369",347,2,392,NA,"mission","","Petersburg","VA","11/7/1880","11/14/1880",325,"",NA,"",NA,NA,NA,NA,"Paulist","",NA,NA,"Petersburg VA",-77.4019267,37.2279279
"370",453,3,90,NA,"mission","","Petersburg","VA","1/20/1884","1/27/1884",320,"1",NA,"",NA,NA,NA,NA,"","",NA,NA,"Petersburg VA",-77.4019267,37.2279279
"371",506,3,191,22,"mission","","Phelps","NY","3/7/1886","3/15/1886",250,"",NA,"Rochester",NA,NA,NA,NA,"","",NA,NA,"Phelps NY",-77.057471,42.957564
"372",14,1,33,14,"mission","St. John's Church","Philadelphia","PA","5/2/1852","5/16/1852",3000,"",NA,"Philadelphia",NA,NA,NA,NA,"Redemptorist","",NA,NA,"Philadelphia PA",-75.163789,39.952335
"373",15,1,33,15,"mission","Church of the Assumption","Philadelphia","PA","5/19/1852","5/31/1852",1700,"",NA,"Philadelphia",NA,NA,NA,NA,"Redemptorist","",NA,NA,"Philadelphia PA",-75.163789,39.952335
"374",23,1,42,23,"mission","St. Mary's Church","Philadelphia","PA","2/20/1853","3/6/1853",2550,"several",NA,"Philadelphia",NA,NA,NA,NA,"Redemptorist","",NA,NA,"Philadelphia PA",-75.163789,39.952335
"375",139,2,6,NA,"mission","Assumption Church","Philadelphia","PA","2/15/1863","2/26/1863",1500,"",NA,"",NA,NA,NA,NA,"Paulist","",NA,NA,"Philadelphia PA",-75.163789,39.952335
"376",173,2,57,NA,"mission","Church of the Sacred Heart","Philadelphia","PA","11/10/1872","11/18/1872",1500,"9",NA,"Philadelphia",NA,NA,NA,NA,"Paulist","",NA,NA,"Philadelphia PA",-75.163789,39.952335
"377",494,3,166,NA,"mission","","Pipestone","MN","10/24/1885","10/24/1885",50,"",NA,"",NA,NA,NA,NA,"","",NA,NA,"Pipestone MN",-96.3128117,43.9985815
"378",51,1,79,51,"mission","St. Paul's Cathedral","Pittsburgh","PA","10/14/1855","10/28/1855",7600,"20",NA,"Pittsburgh",NA,NA,NA,NA,"Redemptorist","",NA,NA,"Pittsburgh PA",-79.9958864,40.4406248
"379",497,3,177,NA,"mission","St. Patrick's Church","Pittsburgh","PA","11/8/1885","11/22/1885",3048,"",NA,"",NA,NA,1480,1565,"","",NA,NA,"Pittsburgh PA",-79.9958864,40.4406248
"380",142,2,9,NA,"mission","St. Joseph's Church","Pittsfield","MA","5/3/1863","5/12/1863",2000,"1",NA,"",NA,NA,NA,NA,"Paulist","",NA,NA,"Pittsfield MA",-73.2453824,42.4500845
"381",122,1,281,36,"mission","","Pittston","PA","4/14/1861","4/22/1861",1980,"3",NA,"",NA,NA,NA,NA,"Paulist","",NA,NA,"Pittston PA",-75.7893604,41.3259134
"382",425,3,39,NA,"mission","Our Lady of Mercy","Plainville ","CT","5/13/1883","5/20/1883",298,"",NA,"",NA,NA,NA,NA,"","",NA,NA,"Plainville  CT",-72.8569444,41.6747222
"383",81,1,151,81,"mission","St John Baptist's Church","Plattsburg","NY","1/24/1858","1/31/1858",1100,"1",NA,"Albany",NA,NA,NA,NA,"Redemptorist","",NA,NA,"Plattsburg NY",-73.4529124,44.6994873
"384",428,3,46,NA,"mission","","Plymouth ","MA","9/16/1883","9/23/1883",575,"",NA,"",NA,NA,NA,NA,"","",NA,NA,"Plymouth  MA",-70.6672621,41.9584457
"385",143,2,10,NA,"mission","Church of Our Lady of Mercy","Port Chester","NY","9/13/1863","9/21/1863",710,"1",NA,"New York",NA,NA,NA,NA,"Paulist","",NA,NA,"Port Chester NY",-73.6656834,41.0017643
"386",440,3,64,NA,"mission","","Port Deposit","MD","11/18/1883","11/25/1883",203,"1",NA,"",NA,NA,NA,NA,"","",NA,NA,"Port Deposit MD",-76.1152289,39.6048327
"387",154,2,25,NA,"mission","Church of Immaculate Conception","Port Jervis","NY","9/11/1864","9/21/1864",750,"1",NA,"",NA,NA,NA,NA,"Paulist","",NA,NA,"Port Jervis NY",-74.692663,41.3750937
"388",31,1,55,31,"mission","St. Paul's Church","Portsmouth","VA","11/13/1853","11/24/1853",330,"10",NA,"Richmond",NA,NA,NA,NA,"Redemptorist","",NA,NA,"Portsmouth VA",-76.2982742,36.8354258
"389",59,1,95,59,"mission","","Portsmouth","VA","3/30/1856","4/8/1856",520,"9",NA,"Richmond",NA,NA,NA,NA,"Redemptorist","",NA,NA,"Portsmouth VA",-76.2982742,36.8354258
"390",451,3,88,NA,"mission","","Portsmouth","VA","1/6/1884","1/13/1884",800,"",NA,"",NA,NA,NA,NA,"","",NA,NA,"Portsmouth VA",-76.2982742,36.8354258
"391",76,1,140,76,"mission","St. Peter's Church","Poughkeepsie","NY","10/24/1857","11/6/1857",1950,"",NA,"",NA,NA,NA,NA,"Redemptorist","",NA,NA,"Poughkeepsie NY",-73.9209701,41.7003713
"392",430,3,49,NA,"mission","St. Peter's Church","Poughkeepsie","NY","9/30/1883","10/7/1883",2500,"1",NA,"",NA,NA,NA,NA,"","",NA,NA,"Poughkeepsie NY",-73.9209701,41.7003713
"393",465,3,103,NA,"mission","St. Peter's Church","Poughkeepsie","NY","9/14/1884","9/21/1884",2100,"",NA,"",NA,NA,NA,NA,"","",NA,NA,"Poughkeepsie NY",-73.9209701,41.7003713
"394",97,1,202,11,"mission","St. Paul's Church","Princeton","NJ","1/23/1859","1/31/1859",570,"1",NA,"Newark",NA,NA,NA,NA,"Paulist","",NA,NA,"Princeton NJ",-74.6672226,40.3572976
"395",89,1,178,3,"mission","Cathedral of Ss. Peter & Paul","Providence","RI","9/19/1858","10/1/1858",4430,"",NA,"",NA,NA,NA,NA,"Paulist","",NA,NA,"Providence RI",-71.4128343,41.8239891
"396",187,2,78,NA,"mission","St. Mary's Church","Providence","RI","11/2/1873","11/11/1873",4000,"",NA,"",NA,NA,NA,NA,"Paulist","",NA,NA,"Providence RI",-71.4128343,41.8239891
"397",311,2,349,NA,"mission","St. Patrick's Church","Providence","RI","3/2/1879","3/16/1879",3507,"",NA,"",NA,NA,NA,NA,"Paulist","",NA,NA,"Providence RI",-71.4128343,41.8239891
"398",99,1,209,13,"mission","St. Patrick's Church","Quebec","QC","3/20/1859","4/3/1859",7250,"50",NA,"Quebec",NA,NA,NA,NA,"Paulist","",NA,NA,"Quebec QC",-71.242796,46.8032826
"399",359,2,407,NA,"mission","St. Patrick's Church","Racine","WI","3/21/1881","3/29/1881",1017,"3",NA,"",NA,NA,NA,NA,"Paulist","",NA,NA,"Racine WI",-87.7828523,42.7261309
"400",176,2,60,NA,"mission","Church of St. Mary","Randolph","MA","12/29/1872","1/5/1873",1600,"2",NA,"",NA,NA,NA,NA,"Paulist","",NA,NA,"Randolph MA",-71.042551,42.1619739
"401",128,1,291,42,"mission","St. Philomena's Church","Rawley","PA","2/2/1862","2/10/1862",1150,"1",NA,"",NA,NA,NA,NA,"Paulist","",NA,NA,"Rawley PA",-80.06532,40.3647715
"402",250,2,156,NA,"mission","St. Joseph's Church","Red Wing","MN","10/1/1876","10/6/1876",240,"0",NA,"",NA,NA,NA,NA,"Paulist","",NA,NA,"Red Wing MN",-92.5369563,44.5660691
"403",21,1,40,21,"mission","St. Peter's Cathedral","Richmond","VA","12/24/1852","1/3/1853",620,"several",NA,"Richmond",NA,NA,NA,NA,"Redemptorist","",NA,NA,"Richmond VA",-77.4360481,37.5407246
"404",60,1,95,60,"mission","Richmond Cathedral","Richmond","VA","4/13/1856","4/23/1856",900,"",NA,"Richmond",NA,NA,NA,NA,"Redemptorist","",NA,NA,"Richmond VA",-77.4360481,37.5407246
"405",348,2,393,NA,"mission","St. Patrick's Church","Richmond","VA","11/21/1880","11/28/1880",528,"3",NA,"",NA,NA,NA,NA,"Paulist","",NA,NA,"Richmond VA",-77.4360481,37.5407246
"406",349,2,394,NA,"mission","Cathedral","Richmond","VA","11/28/1880","12/12/1880",1800,"4",NA,"",NA,NA,NA,NA,"Paulist","",NA,NA,"Richmond VA",-77.4360481,37.5407246
"407",448,3,84,NA,"mission","Cathedral","Richmond","VA","12/9/1883","12/16/1883",1700,"6",NA,"",NA,NA,NA,NA,"","",NA,NA,"Richmond VA",-77.4360481,37.5407246
"408",449,3,85,NA,"mission","St. Patrick's Church","Richmond","VA","12/9/1883","12/16/1883",720,"",NA,"",NA,NA,NA,NA,"","",NA,NA,"Richmond VA",-77.4360481,37.5407246
"409",241,2,147,NA,"mission","St. Thomas's Church","Rochester","MN","11/19/1876","11/28/1876",1537,"8",NA,"",NA,NA,NA,NA,"Paulist","",NA,NA,"Rochester MN",-92.46295,44.0234
"410",242,2,148,NA,"mission","St. Bridget's Church","Rochester","MN","11/29/1876","12/3/1876",626,"2",NA,"",NA,NA,NA,NA,"Paulist","",NA,NA,"Rochester MN",-92.46295,44.0234
"411",340,2,384,NA,"mission","St. Bridget's Church","Rochester","NY","9/12/1880","9/21/1880",1325,"1",NA,"",NA,NA,NA,NA,"Paulist","",NA,NA,"Rochester NY",-77.6109219,43.16103
"412",419,3,31,NA,"mission","","Rockland","MA","5/6/1883","5/13/1883",1015,"1",NA,"",NA,NA,NA,NA,"","",NA,NA,"Rockland MA",-70.9161551,42.1306563
"413",281,2,206,NA,"mission","St. Bernard's Church","Rockville","CT","1/21/1878","1/29/1878",1058,"6",NA,"Hartford",NA,NA,NA,NA,"Paulist","",NA,NA,"Rockville CT",-72.4495287,41.8667645
"414",72,1,133,72,"mission","St. Mary's Church","Roudout","NY","3/1/1857","3/15/1857",2200,"",NA,"",NA,NA,NA,NA,"Redemptorist","",NA,NA,"Roudout NY",-73.9851381,41.920648
"415",299,2,233,NA,"mission","","Sabula","IL","11/24/1878","11/24/1878",86,"",NA,"",NA,NA,NA,NA,"Paulist","",NA,NA,"Sabula IL",-90.1740169,42.0711347
"416",213,2,114,NA,"mission","Church of St. Rose of Lima","Sacramento","CA","4/4/1875","4/14/1875",1600,"2",NA,"",NA,NA,NA,NA,"Paulist","",NA,NA,"Sacramento CA",-121.4943996,38.5815719
"417",159,2,32,NA,"mission","Church of the Immaculate Conception","Salem","MA","12/4/1864","12/13/1864",2100,"3",NA,"",NA,NA,NA,NA,"Paulist","",NA,NA,"Salem MA",-70.8967155,42.51954
"418",160,2,33,NA,"mission","Church of St. James","Salem","MA","1/1/1865","1/11/1865",2551,"11",NA,"",NA,NA,NA,NA,"Paulist","",NA,NA,"Salem MA",-70.8967155,42.51954
"419",361,2,409,NA,"mission","St. James's Church","Salem","MA","5/8/1881","5/23/1881",3926,"1",NA,"Cf, p. 410 which says 74 converts for this period",NA,250,1844,1832,"Paulist","",NA,NA,"Salem MA",-70.8967155,42.51954
"420",475,3,129,NA,"mission","St. James's Church","Salem","MA","2/22/1885","3/8/1885",4113,"",NA,"",NA,396,1703,2014,"","",NA,NA,"Salem MA",-70.8967155,42.51954
"421",265,2,180,NA,"mission","St John Baptist Church","Salina","NY","4/29/1877","5/9/1877",1900,"3",NA,"",NA,NA,NA,NA,"Paulist","",NA,NA,"Salina NY",-76.1725774,43.1071066
"422",222,2,124,NA,"mission","Church of Mary Magdalen","Salt Lake City","UT","6/20/1875","6/27/1875",75,"1",NA,"",NA,NA,NA,NA,"Paulist","",NA,NA,"Salt Lake City UT",-111.8910474,40.7607793
"423",53,1,84,53,"mission","Church of the Holy Angels","Sandusky","OH","12/2/1855","12/12/1855",1100,"",NA,"Cleveland",NA,NA,NA,NA,"Redemptorist","",NA,NA,"Sandusky OH",-82.7079605,41.4489396
"424",174,2,58,NA,"mission","Church of Ss. Peter and Paul","Sandusky","OH","11/24/1872","12/3/1872",1500,"2",NA,"Cleveland",NA,NA,NA,NA,"Paulist","",NA,NA,"Sandusky OH",-82.7079605,41.4489396
"425",437,3,61,NA,"mission","Church of St. Peter and Paul","Sandusky","OH","10/28/1883","11/5/1883",1362,"1",NA,"",NA,NA,NA,NA,"","",NA,NA,"Sandusky OH",-82.7079605,41.4489396
"426",287,2,215,NA,"mission","","Sandy Hill, Hudson Falls","NY","4/7/1878","4/16/1878",1100,"8",NA,"",NA,NA,NA,NA,"Paulist","The mission was held in Sandy Hills, which is probably Hudson, NY.",NA,NA,"Sandy Hill, Hudson Falls NY",-73.494427,43.788801
"427",209,2,108,NA,"mission","St. Mary's Cathedral","San Francisco","CA","2/14/1875","2/28/1875",2800,"6",NA,"San Francisco",NA,NA,NA,NA,"Paulist","",NA,NA,"San Francisco CA",-122.4194155,37.7749295
"428",210,2,109,NA,"mission","St. Francis Church","San Francisco","CA","3/7/1875","3/16/1875",1350,"7",NA,"San Francisco",NA,NA,NA,NA,"Paulist","",NA,NA,"San Francisco CA",-122.4194155,37.7749295
"429",212,2,112,NA,"mission","St. Patrick's Church","San Francisco","CA","3/21/1875","4/5/1875",9000,"13",NA,"",NA,NA,NA,NA,"Paulist","",NA,NA,"San Francisco CA",-122.4194155,37.7749295
"430",215,2,116,NA,"mission","St. Peter's Church","San Francisco","CA","4/11/1875","4/21/1875",1600,"5",NA,"",NA,NA,NA,NA,"Paulist","",NA,NA,"San Francisco CA",-122.4194155,37.7749295
"431",216,2,117,NA,"mission","St. Joseph's Church","San Jose","CA","4/18/1875","4/28/1875",1100,"",NA,"",NA,NA,NA,NA,"Paulist","",NA,NA,"San Jose CA",-121.8949555,37.3393857
"432",214,2,115,NA,"mission","Church of San Rafael","San Rafael","CA","3/21/1875","3/28/1875",360,"9",NA,"",NA,NA,NA,NA,"Paulist","",NA,NA,"San Rafael CA",-122.5310874,37.9735346
"433",217,2,119,NA,"mission","Church of the Holy Cross","Santa Cruz","CA","4/25/1875","5/2/1875",650,"2",NA,"",NA,NA,NA,NA,"Paulist","",NA,NA,"Santa Cruz CA",-122.0307963,36.9741171
"434",10,1,23,10,"mission","St. Peter's Church","Saratoga","NY","1/11/1852","1/22/1852",600,"several",NA,"Albany",NA,NA,NA,NA,"Redemptorist","",NA,NA,"Saratoga NY",-73.6300729,43.0448483
"435",85,1,157,85,"mission","","Saratoga Springs","NY","3/7/1858","3/15/1858",970,"",NA,"",NA,NA,NA,NA,"Redemptorist","",NA,NA,"Saratoga Springs NY",-73.7845651,43.0831301
"436",65,1,111,65,"mission","St. John's Church","Savannah","GA","11/23/1856","12/7/1856",2500,"several",NA,"Savannah",NA,NA,NA,NA,"Redemptorist","",NA,NA,"Savannah GA",-81.0998342,32.0835407
"437",298,2,233,NA,"mission","","Savannah","IL","11/14/1878","11/17/1878",130,"",NA,"",NA,NA,NA,NA,"Paulist","",NA,NA,"Savannah IL",-90.1567944,42.0944671
"438",40,1,66,40,"mission","St. John's Church","Schenectady","NY","10/8/1854","10/18/1854",1300,"",NA,"",NA,NA,NA,NA,"Redemptorist","",NA,NA,"Schenectady NY",-73.9395687,42.8142432
"439",132,1,295,46,"mission","","Scranton ","PA","5/18/1862","5/29/1862",2500,"",NA,"",NA,NA,NA,NA,"Paulist","",NA,NA,"Scranton  PA",-75.6624122,41.408969
"440",341,2,385,NA,"mission","","Seneca Falls","NY","10/1/1880","10/1/1880",1347,"3",NA,"",NA,NA,NA,NA,"Paulist","",NA,NA,"Seneca Falls NY",-76.7966215,42.9106219
"441",468,3,108,NA,"mission","","Seneca","IL","10/21/1884","10/21/1884",550,"",NA,"",NA,NA,NA,NA,"","",NA,NA,"Seneca IL",-88.6097936,41.3111442
"442",245,2,151,NA,"mission","St. Mary's Church","Shakopee","MN","10/15/1876","10/22/1876",415,"3",NA,"",NA,NA,NA,NA,"Paulist","",NA,NA,"Shakopee MN",-93.5272861,44.7973962
"443",182,2,69,NA,"mission","Church of the Sacred Heart","Sharon","PA","5/4/1873","5/11/1873",700,"1",NA,"",NA,NA,NA,NA,"Paulist","",NA,NA,"Sharon PA",-80.4934035,41.2331116
"444",318,2,357,NA,"mission","","Shelbourne Falls","MA","9/14/1879","9/21/1879",115,"",NA,"",NA,NA,NA,NA,"Paulist","",NA,NA,"Shelbourne Falls MA",-72.7392588,42.6042514
"445",394,2,451,NA,"mission","","Sherburne","NY","11/1/1881","11/1/1881",250,"",NA,"",NA,NA,NA,NA,"Paulist","",NA,NA,"Sherburne NY",-75.4985123,42.6781266
"446",248,2,154,NA,"mission","St. Patrick's Church","Shieldsville","MN","11/26/1876","12/6/1876",1100,"3",NA,"",NA,NA,NA,NA,"Paulist","",NA,NA,"Shieldsville MN",-93.4088334,44.3660744
"447",531,3,229,NA,"mission","St. Patrick's Church","Shieldsville","MN","11/21/1886","11/28/1886",636,"",NA,"",NA,NA,NA,NA,"","",NA,NA,"Shieldsville MN",-93.4088334,44.3660744
"448",304,2,240,NA,"mission","","Shullsburg","WI","10/27/1878","11/6/1878",1149,"5",NA,"Milwaukee",NA,NA,NA,NA,"Paulist","",NA,NA,"Shullsburg WI",-90.23096,42.5733354
"449",395,2,451,NA,"mission","","Sing-Sing","NY","5/7/1882","5/14/1882",1350,"1",NA,"",NA,NA,NA,NA,"Paulist","",NA,NA,"Sing-Sing NY",-76.8910257,42.1719586
"450",257,2,165,NA,"mission","Church of Our Lady, Help of Christians","Sioux City","IA","12/3/1876","12/13/1876",750,"6",NA,"Dubuque",NA,NA,NA,NA,"Paulist","",NA,NA,"Sioux City IA",-96.4003069,42.4999942
"451",219,2,121,NA,"mission","Church of the Immaculate Conception","Smartsville","CA","5/16/1875","5/24/1875",350,"2",NA,"",NA,NA,NA,NA,"Paulist","",NA,NA,"Smartsville CA",-121.2988335,39.2077473
"452",283,2,208,NA,"mission","St. Augustine's Church","South Boston","MA","3/3/1878","3/24/1878",5674,"11",NA,"Boston",NA,1000,NA,NA,"Paulist","",NA,NA,"South Boston MA",-71.0468053,42.3384881
"453",402,2,458,NA,"mission","","South Boulder and Fort Collins","CO","3/19/1882","4/2/1882",NA,"",NA,"",NA,NA,NA,NA,"Paulist","",NA,NA,"South Boulder and Fort Collins CO",-104.9759032,40.5840625
"454",155,2,26,NA,"mission","Church of St. Peter","Southbridge","MA","10/2/1864","10/9/1864",730,"4",NA,"",NA,NA,NA,NA,"Paulist","",NA,NA,"Southbridge MA",-72.0333905,42.0751065
"455",317,2,356,NA,"mission","","South Deerfield","MA","9/14/1879","9/21/1879",270,"",NA,"",NA,NA,NA,NA,"Paulist","",NA,NA,"South Deerfield MA",-72.6078667,42.4773097
"456",289,2,217,NA,"mission","Church of St. James","South Manchester","CT","5/5/1878","5/12/1878",845,"1",NA,"Hartford",NA,NA,NA,NA,"Paulist","",NA,NA,"South Manchester CT",-72.5215009,41.7759301
"457",367,2,415,NA,"mission","Church of the Immaculate Conception","South Wheeling","WV","9/18/1881","9/25/1881",576,"",NA,"",546,30,NA,NA,"Paulist","",NA,NA,"South Wheeling WV",-80.7209149,40.0639616
"458",134,2,1,NA,"mission","St. John's Church","Stamford","CT","9/28/1862","10/5/1862",900,"2",NA,"",NA,NA,NA,NA,"Paulist","",NA,NA,"Stamford CT",-73.5387341,41.0534302
"459",373,2,426,NA,"mission","St. Bridget's Church","Stanton","WI","12/4/1881","12/11/1881",234,"1",NA,"",NA,NA,NA,NA,"Paulist","",NA,NA,"Stanton WI",-92.4671398,45.1730204
"460",70,1,126,70,"mission","","St. Augustine","FL","1/4/1857","1/11/1857",600,"",NA,"",NA,NA,NA,NA,"Redemptorist","",NA,NA,"St. Augustine FL",-81.3132083,29.8942639
"461",344,2,389,NA,"mission","","Staunton","VA","10/10/1880","10/17/1880",333,"",NA,"",NA,NA,NA,NA,"Paulist","",NA,NA,"Staunton VA",-79.0716958,38.149576
"462",455,3,92,NA,"mission","","Staunton","VA","2/10/1884","2/17/1884",370,"1",NA,"",NA,NA,NA,NA,"","",NA,NA,"Staunton VA",-79.0716958,38.149576
"463",255,2,163,NA,"mission","Church of St. Charles Borromeo","St. Charles","MN","11/19/1876","11/24/1876",375,"1",NA,"",NA,NA,NA,NA,"Paulist","",NA,NA,"St. Charles MN",-92.064194,43.9694165
"464",224,2,126,NA,"mission","Church of St. Michael","Stillwater","MN","9/19/1875","9/30/1875",1200,"1",NA,"",NA,NA,NA,NA,"Paulist","",NA,NA,"Stillwater MN",-92.8088443,45.056004
"465",101,1,223,15,"mission","Cathedral of the Immaculate Conception","St. John","NB","9/4/1859","9/15/1859",8450,"6",NA,"Halifax",NA,NA,NA,NA,"Paulist","",NA,NA,"St. John NB",-66.0633081,45.2733153
"466",145,2,12,NA,"mission","St. Patrick's Cathedral","St. Louis","MO","10/25/1863","11/4/1863",2500,"3",NA,"St. Louis",NA,NA,NA,NA,"Paulist","",NA,NA,"St. Louis MO",-90.1994042,38.6270025
"467",146,2,13,NA,"mission","St. John's Church","St. Louis","MO","11/15/1863","11/24/1863",1300,"",NA,"",NA,NA,NA,NA,"Paulist","",NA,NA,"St. Louis MO",-90.1994042,38.6270025
"468",278,2,201,NA,"mission","Church of St. Mary's","St. Mary's of the Woods","IN","11/25/1877","12/4/1877",315,"5",NA,"Vincennes",NA,NA,NA,NA,"Paulist","",NA,NA,"St. Mary's of the Woods IN",-78.6943955,35.7491283
"469",149,2,17,NA,"mission","Church of the Immaculate Conception","Stoughton","MA","2/14/1864","2/21/1864",567,"",NA,"",NA,NA,NA,NA,"Paulist","",NA,NA,"Stoughton MA",-71.1027778,42.125
"470",225,2,127,NA,"mission","Cathedral of St. Paul","St. Paul","MN","10/3/1875","10/17/1875",2100,"6",NA,"",NA,NA,NA,NA,"Paulist","",NA,NA,"St. Paul MN",-93.0899578,44.9537029
"471",226,2,130,NA,"mission","St. Mary's Church","St. Paul","MN","10/24/1875","11/3/1875",1200,"6",NA,"",NA,NA,NA,NA,"Paulist","",NA,NA,"St. Paul MN",-93.0899578,44.9537029
"472",235,2,141,NA,"mission","Cathedral of St. Paul","St. Paul","MN","9/10/1876","9/14/1876",1500,"",NA,"",NA,NA,NA,NA,"Paulist","",NA,NA,"St. Paul MN",-93.0899578,44.9537029
"473",524,3,220,NA,"mission","St. Paul's Cathedral","St. Paul","MN","10/3/1886","10/17/1886",3203,"2",NA,"",NA,NA,1360,1843,"","",NA,NA,"St. Paul MN",-93.0899578,44.9537029
"474",529,3,226,NA,"mission","St. Mary's Church","St. Paul","MN","11/7/1886","11/16/1886",1651,"3",NA,"",NA,NA,NA,NA,"","",NA,NA,"St. Paul MN",-93.0899578,44.9537029
"475",399,2,456,NA,"mission","","St. Vrain Valley","CO","1/8/1882","1/12/1882",35,"",NA,"",NA,NA,NA,NA,"Paulist","",NA,NA,"St. Vrain Valley CO",-105.1071813,40.1551451
"476",200,2,95,NA,"mission","Church of St. Rose of Lima","Suffern","NY","5/3/1874","5/8/1874",150,"2",NA,"New York",NA,NA,NA,NA,"Paulist","",NA,NA,"Suffern NY",-74.1495889,41.1148179
"477",421,3,34,NA,"mission","","Suffern","NY","5/13/1883","5/21/1883",170,"2",NA,"",NA,NA,NA,NA,"","",NA,NA,"Suffern NY",-74.1495889,41.1148179
"478",342,2,386,NA,"mission","","Susquehanna","PA","11/14/1880","11/23/1880",1500,"1",NA,"",NA,NA,NA,NA,"Paulist","",NA,NA,"Susquehanna PA",-75.5991789,41.9436071
"479",261,2,172,NA,"mission","Church of St. Lucy","Syracuse","NY","1/21/1877","1/30/1877",1500,"5",NA,"",NA,NA,NA,NA,"Paulist","",NA,NA,"Syracuse NY",-76.1474244,43.0481221
"480",500,3,182,NA,"mission","St. Lucy's Church","Syracuse","NY","12/13/1885","12/21/1885",2527,"",NA,"",NA,NA,NA,NA,"","",NA,NA,"Syracuse NY",-76.1474244,43.0481221
"481",333,2,372,NA,"mission","","Terre Haute","IN","3/7/1880","3/18/1880",1600,"",NA,"",NA,NA,NA,NA,"Paulist","",NA,NA,"Terre Haute IN",-87.4139092,39.4667034
"482",478,3,134,NA,"mission","St. Joseph's Church","Terre Haute","IN","3/22/1885","3/29/1885",1100,"7",NA,"",NA,NA,NA,NA,"","",NA,NA,"Terre Haute IN",-87.4139092,39.4667034
"483",499,3,181,NA,"mission","","Terre Haute","IN","11/28/1885","12/2/1885",1000,"7",NA,"",NA,NA,NA,NA,"","",NA,NA,"Terre Haute IN",-87.4139092,39.4667034
"484",306,2,343,NA,"mission","St. Francis de Sales Church","Toledo","OH","11/24/1878","12/4/1878",1688,"0",NA,"Cleveland",NA,NA,NA,NA,"Paulist","",NA,NA,"Toledo OH",-83.555212,41.6639383
"485",489,3,157,NA,"mission","","Tracy","MN","10/4/1885","10/9/1885",67,"",NA,"",NA,NA,NA,NA,"","",NA,NA,"Tracy MN",-95.6227778,44.2319444
"486",79,1,145,79,"mission","St. John the Baptist's Church","Trenton","NJ","12/20/1857","12/31/1857",2050,"5",NA,"Newark",NA,NA,NA,NA,"Redemptorist","",NA,NA,"Trenton NJ",-74.7429384,40.2170534
"487",150,2,18,NA,"mission","Church of St. John the Baptist","Trenton","NJ","2/28/1864","3/10/1864",2800,"10",NA,"",NA,NA,NA,NA,"Paulist","",NA,NA,"Trenton NJ",-74.7429384,40.2170534
"488",205,2,102,NA,"mission","St. John's Church","Trenton","NJ","10/25/1874","11/5/1874",2700,"6",NA,"",NA,NA,NA,NA,"Paulist","",NA,NA,"Trenton NJ",-74.7429384,40.2170534
"489",11,1,27,11,"mission","St. Peter's Church","Troy","NY","1/25/1852","2/22/1852",3100,"",NA,"Albany",NA,NA,NA,NA,"Redemptorist","",NA,NA,"Troy NY",-73.6917851,42.7284117
"490",100,1,218,14,"mission","St. Peter's Church","Troy","NY","4/10/1859","4/20/1859",2600,"6",NA,"Albany",2440,160,NA,NA,"Paulist","",NA,NA,"Troy NY",-73.6917851,42.7284117
"491",502,3,184,NA,"mission","","Union Springs","NY","1/10/1886","1/17/1886",300,"1",NA,"",NA,NA,NA,NA,"","",NA,NA,"Union Springs NY",-76.6932818,42.8397906
"492",46,1,74,46,"mission","St. Patrick's Church","Utica","NY","2/21/1855","3/4/1855",1000,"several",NA,"Albany",NA,NA,NA,NA,"Redemptorist","",NA,NA,"Utica NY",-75.232664,43.100903
"493",77,1,142,77,"mission","St. John's Church","Utica","NY","11/15/1857","11/27/1857",3000,"",NA,"",NA,NA,NA,NA,"Redemptorist","",NA,NA,"Utica NY",-75.232664,43.100903
"494",471,3,119,NA,"retreat","St. John's Church","Utica","NY","12/14/1884","12/21/1884",800,"",NA,"",NA,NA,NA,NA,"","",NA,NA,"Utica NY",-75.232664,43.100903
"495",220,2,122,NA,"mission","Church of the Immaculate Conception","Virginia City","NV","5/30/1875","6/13/1875",1200,"3",NA,"",NA,NA,NA,NA,"Paulist","",NA,NA,"Virginia City NV",-119.6499793,39.3095135
"496",252,2,159,NA,"mission","Church of St. Felix of Valois","Wabasha","MN","10/22/1876","10/29/1876",470,"1",NA,"",NA,NA,NA,NA,"Paulist","",NA,NA,"Wabasha MN",-92.0382346,44.3710051
"497",153,2,24,NA,"mission","Church of St. William","Ware","MA","5/1/1864","5/8/1864",1080,"2",NA,"",NA,NA,NA,NA,"Paulist","",NA,NA,"Ware MA",-72.2398566,42.2598457
"498",527,3,224,NA,"mission","Church of the Sacred Heart","Waseca","MN","10/24/1886","10/31/1886",675,"",NA,"",NA,NA,NA,NA,"","",NA,NA,"Waseca MN",-93.5083843,44.0770411
"499",64,1,106,64,"mission","St. Patrick's Church","Washington","DC","11/2/1856","11/15/1856",2700,"several",NA,"Baltimore",NA,NA,NA,NA,"Redemptorist","",NA,NA,"Washington DC",-77.0364641,38.9072309
"500",491,3,159,NA,"mission","St. Peter's Church, Capitol Hill","Washington","DC","10/4/1885","10/14/1885",2235,"4",NA,"",NA,NA,NA,NA,"","",NA,NA,"Washington DC",-77.0364641,38.9072309
"501",504,3,189,NA,"mission","Church of the Immaculate Conception","Washington","DC","2/28/1886","3/9/1886",1774,"6",NA,"",NA,NA,NA,NA,"","",NA,NA,"Washington DC",-77.0364641,38.9072309
"502",184,2,72,NA,"mission","St. Elizabeth's Church","Washington Heights","NY","9/21/1873","9/28/1873",1007,"",NA,"",NA,NA,NA,NA,"Paulist","",NA,NA,"Washington Heights NY",-73.9389213,40.8401451
"503",107,1,241,21,"mission","Church of the Immaculate Conception","Waterbury","CT","1/15/1860","1/29/1860",2800,"3",NA,"Hartford",NA,NA,NA,NA,"Paulist","",NA,NA,"Waterbury CT",-73.0514965,41.5581525
"504",87,1,169,1,"mission","St. Patrick's Church","Watertown","NY","4/18/1858","4/26/1858",1073,"5",NA,"",NA,NA,NA,NA,"Paulist","",NA,NA,"Watertown NY",-75.9107565,43.9747838
"505",391,2,450,NA,"mission","","Waterville","NY","5/15/1882","5/15/1882",1000,"",NA,"",NA,NA,NA,NA,"Paulist","",NA,NA,"Waterville NY",-75.3798924,42.931181
"506",477,3,132,NA,"mission","","Waukesha","WI","3/7/1885","3/15/1885",623,"",NA,"",NA,NA,NA,NA,"","",NA,NA,"Waukesha WI",-88.2314813,43.0116784
"507",243,2,149,NA,"mission","St. Mary's Church","Waverly","MN","9/17/1876","9/24/1876",460,"11",NA,"",NA,NA,NA,NA,"Paulist","",NA,NA,"Waverly MN",-93.9663889,45.0666667
"508",152,2,23,NA,"mission","","Webster","MA","4/17/1864","4/24/1864",700,"",NA,"",NA,NA,NA,NA,"Paulist","",NA,NA,"Webster MA",-71.8800628,42.050091
"509",389,2,449,NA,"mission","St. Thomas's Church","West Farms","NY","4/2/1882","4/9/1882",442,"2",NA,"",NA,NA,NA,NA,"Paulist","",NA,NA,"West Farms NY",-73.8816001,40.8430609
"510",480,3,137,NA,"mission","St. Thomas's Church","West Farms","NY","4/12/1885","4/19/1885",336,"",NA,"",NA,NA,NA,NA,"","",NA,NA,"West Farms NY",-73.8816001,40.8430609
"511",519,3,214,NA,"mission","","West Point","NY","9/12/1886","9/19/1886",375,"",NA,"",NA,NA,NA,NA,"","",NA,NA,"West Point NY",-73.9587527,41.3916944
"512",291,2,220,NA,"mission","","West Roxbury","MA","5/12/1878","5/21/1878",424,"3",NA,"Boston",NA,NA,NA,NA,"Paulist","",NA,NA,"West Roxbury MA",-71.1626756,42.2797554
"513",314,2,353,NA,"mission","","West Roxbury","MA","5/4/1879","5/12/1879",984,"3",NA,"",NA,NA,NA,NA,"Paulist","",NA,NA,"West Roxbury MA",-71.1626756,42.2797554
"514",84,1,156,84,"mission","","West Rutland","VT","2/21/1858","3/1/1858",1008,"3",NA,"Burlington",NA,NA,NA,NA,"Redemptorist","",NA,NA,"West Rutland VT",-73.0451081,43.5930919
"515",522,3,218,NA,"mission","St. Michael's Church","West St. Paul","MN","9/26/1886","10/4/1886",721,"",NA,"",NA,NA,NA,NA,"","",NA,NA,"West St. Paul MN",-93.1016074,44.9160768
"516",266,2,181,NA,"mission","Church of the Sacred Heart","Weymouth","MA","4/29/1877","5/9/1877",1700,"0",NA,"",NA,NA,NA,NA,"Paulist","",NA,NA,"Weymouth MA",-70.9410356,42.2180724
"517",17,1,36,17,"mission","St. James's Cathedral","Wheeling","WV","9/5/1852","9/15/1852",1250,"several",NA,"Wheeling-Charleston",NA,NA,NA,NA,"Redemptorist","",NA,NA,"Wheeling WV",-80.7209149,40.0639616
"518",368,2,417,NA,"mission","Wheeling Cathedral","Wheeling","WV","10/2/1881","10/16/1881",2500,"1",NA,"Wheeling",2099,400,NA,NA,"Paulist","",NA,NA,"Wheeling WV",-80.7209149,40.0639616
"519",285,2,212,NA,"mission","Church of St. Antony of Padua","White River Junction","VT","3/10/1878","3/17/1878",550,"2",NA,"",NA,NA,NA,NA,"Paulist","",NA,NA,"White River Junction VT",-72.3192579,43.6489596
"520",32,1,56,32,"mission","St. Peter and Paul's Church","Williamsburg, Brookyln, New York","NY","12/4/1853","12/18/1853",4000,"16",NA,"New York",NA,NA,NA,NA,"Redemptorist","",NA,NA,"Williamsburg, Brookyln, New York NY",-73.9536163,40.7064461
"521",490,3,158,NA,"mission","","Willow Lake","MN","10/4/1885","10/7/1885",69,"",NA,"",NA,NA,NA,NA,"","",NA,NA,"Willow Lake MN",-95.1640605,44.3394439
"522",63,1,102,63,"mission","St. Peter's Church","Wilmington","DE","10/12/1856","10/23/1856",1700,"",NA,"Philadelphia",NA,NA,NA,NA,"Redemptorist","",NA,NA,"Wilmington DE",-75.5466667,39.7458333
"523",171,2,55,NA,"mission","Church of St. Paul","Wilmington","DE","4/28/1872","5/5/1872",1300,"",NA,"Wilmington",NA,NA,NA,NA,"Paulist","",NA,NA,"Wilmington DE",-75.5466667,39.7458333
"524",172,2,56,NA,"mission","St. Peter's Cathedral","Wilmington","DE","10/29/1872","11/5/1872",1800,"",NA,"Wilmington",NA,NA,NA,NA,"Paulist","",NA,NA,"Wilmington DE",-75.5466667,39.7458333
"525",303,2,239,NA,"mission","","Winchendon","MA","10/13/1878","10/21/1878",625,"",NA,"Springfield",NA,NA,NA,NA,"Paulist","",NA,NA,"Winchendon MA",-72.0439529,42.6871009
"526",326,2,366,NA,"mission","","Winchester","VA","1/11/1880","1/20/1880",160,"7",NA,"Richmond",NA,NA,NA,NA,"Paulist","",NA,NA,"Winchester VA",-78.1633341,39.1856597
"527",458,3,93,NA,"mission","","Winchester","VA","3/2/1884","3/9/1884",153,"",4,"",NA,NA,NA,NA,"","",NA,NA,"Winchester VA",-78.1633341,39.1856597
"528",229,2,134,NA,"mission","Church of St. Thomas","Winona","MN","12/12/1875","12/19/1875",800,"10",NA,"",NA,NA,NA,NA,"Paulist","",NA,NA,"Winona MN",-91.6404389,44.0478889
"529",525,3,222,NA,"mission","St. Thomas's Church","Winona","MN","10/24/1886","10/31/1886",1140,"4",NA,"",NA,NA,NA,NA,"","",NA,NA,"Winona MN",-91.6404389,44.0478889
"530",493,3,164,NA,"mission","","Woodstock","MN","10/16/1885","10/21/1885",109,"",NA,"",NA,NA,NA,NA,"","",NA,NA,"Woodstock MN",-96.1005806,44.0091343
"531",443,3,72,NA,"retreat","St. John's Church","Worcester","MA","1/6/1884","1/13/1884",1120,"",NA,"",NA,NA,NA,NA,"","",NA,NA,"Worcester MA",-71.8022934,42.2625932
"532",258,2,166,NA,"mission","","Yankton","SD","12/10/1876","12/17/1876",320,"5",NA,"St. Paul",NA,NA,NA,NA,"Paulist","",NA,NA,"Yankton SD",-97.3972813,42.8711088
"533",28,1,52,28,"mission","St. Mary's Church","Yonkers","NY","9/29/1853","10/2/1853",550,"",NA,"New York",NA,NA,NA,NA,"Redemptorist","",NA,NA,"Yonkers NY",-73.8987469,40.9312099
"534",487,3,153,NA,"mission","Church of the Immaculate Conception","Yonkers","NY","9/13/1885","9/27/1885",3772,"",NA,"",NA,215,1650,1907,"","",NA,NA,"Yonkers NY",-73.8987469,40.9312099
"535",9,1,22,9,"mission","St. Vincent's Church (Benedictine)","Youngstown","PA","12/10/1851","12/19/1851",1000,"",NA,"Pittsburgh",NA,NA,NA,NA,"Redemptorist","",NA,NA,"Youngstown PA",-79.3655913,40.2797927
"536",321,2,360,NA,"mission","","Ypsilanti","MI","11/2/1879","11/9/1879",480,"",NA,"",NA,NA,NA,NA,"Paulist","",NA,NA,"Ypsilanti MI",-83.6129939,42.2411499
